[
 {
  "id": 519188,
  "name": "Novinki",
  "country": "RU",
  "coord": {
   "lon": 37.666668,
   "lat": 55.683334
  }
 },
 {
  "id": 529334,
  "name": "Mar’ina Roshcha",
  "country": "RU",
  "coord": {
   "lon": 37.611111,
   "lat": 55.796391
  }
 },
 {
  "id": 569143,
  "name": "Cherkizovo",
  "country": "RU",
  "coord": {
   "lon": 37.728889,
   "lat": 55.800835
  }
 },
 {
  "id": 464176,
  "name": "Zavety Il’icha",
  "country": "RU",
  "coord": {
   "lon": 37.849998,
   "lat": 56.049999
  }
 },
 {
  "id": 475279,
  "name": "Verkhneye Shchekotikhino",
  "country": "RU",
  "coord": {
   "lon": 36.133331,
   "lat": 53
  }
 },
 {
  "id": 524894,
  "name": "Moskva",
  "country": "RU",
  "coord": {
   "lon": 37.606667,
   "lat": 55.761665
  }
 },
 {
  "id": 494806,
  "name": "Sheremetyevskiy",
  "country": "RU",
  "coord": {
   "lon": 37.491112,
   "lat": 55.98
  }
 },
 {
  "id": 467104,
  "name": "Yershovo",
  "country": "RU",
  "coord": {
   "lon": 36.858055,
   "lat": 55.771111
  }
 },
 {
  "id": 524925,
  "name": "Moskovskaya Oblast’",
  "country": "RU",
  "coord": {
   "lon": 37.628334,
   "lat": 55.75639
  }
 },
 {
  "id": 569339,
  "name": "Cheremisinovo",
  "country": "RU",
  "coord": {
   "lon": 37.264599,
   "lat": 51.885502
  }
 },
 {
  "id": 487928,
  "name": "Staryy Oskol",
  "country": "RU",
  "coord": {
   "lon": 37.841667,
   "lat": 51.296665
  }
 },
 {
  "id": 578652,
  "name": "Batyunino",
  "country": "RU",
  "coord": {
   "lon": 37.700001,
   "lat": 55.66
  }
 },
 {
  "id": 583489,
  "name": "Alachkovo",
  "country": "RU",
  "coord": {
   "lon": 37.560001,
   "lat": 55.200001
  }
 },
 {
  "id": 6417336,
  "name": "Dal’niye Prudishchi",
  "country": "RU",
  "coord": {
   "lon": 37.860279,
   "lat": 55.553333
  }
 },
 {
  "id": 520077,
  "name": "Nagatino",
  "country": "RU",
  "coord": {
   "lon": 37.683334,
   "lat": 55.683334
  }
 },
 {
  "id": 467951,
  "name": "Yelgazino",
  "country": "RU",
  "coord": {
   "lon": 37.866669,
   "lat": 55.416668
  }
 },
 {
  "id": 576721,
  "name": "Besedy",
  "country": "RU",
  "coord": {
   "lon": 37.790001,
   "lat": 55.610001
  }
 },
 {
  "id": 470819,
  "name": "Vvedenskoye",
  "country": "RU",
  "coord": {
   "lon": 36.894444,
   "lat": 55.695278
  }
 },
 {
  "id": 502018,
  "name": "Reutov",
  "country": "RU",
  "coord": {
   "lon": 37.861668,
   "lat": 55.759445
  }
 },
 {
  "id": 820027,
  "name": "Gorenosovo",
  "country": "RU",
  "coord": {
   "lon": 37.250278,
   "lat": 55.818054
  }
 },
 {
  "id": 560756,
  "name": "Golitsyno",
  "country": "RU",
  "coord": {
   "lon": 36.983334,
   "lat": 55.612221
  }
 },
 {
  "id": 521561,
  "name": "Nikol’skoye",
  "country": "RU",
  "coord": {
   "lon": 36.716667,
   "lat": 56.150002
  }
 },
 {
  "id": 537691,
  "name": "Kuznetsovo",
  "country": "RU",
  "coord": {
   "lon": 36.650002,
   "lat": 56.133331
  }
 },
 {
  "id": 463666,
  "name": "Zen’kino",
  "country": "RU",
  "coord": {
   "lon": 36.771942,
   "lat": 55.94389
  }
 },
 {
  "id": 485279,
  "name": "Sychëvka",
  "country": "RU",
  "coord": {
   "lon": 36.822498,
   "lat": 55.914165
  }
 },
 {
  "id": 6726099,
  "name": "Vecheri",
  "country": "RU",
  "coord": {
   "lon": 37.512775,
   "lat": 54.844013
  }
 },
 {
  "id": 465825,
  "name": "Zabor’ye",
  "country": "RU",
  "coord": {
   "lon": 37.785278,
   "lat": 55.384167
  }
 },
 {
  "id": 6417711,
  "name": "Posëlok Neftebazy",
  "country": "RU",
  "coord": {
   "lon": 37.851944,
   "lat": 55.785831
  }
 },
 {
  "id": 502069,
  "name": "Reshetnikovo",
  "country": "RU",
  "coord": {
   "lon": 36.566666,
   "lat": 56.450001
  }
 },
 {
  "id": 517183,
  "name": "Novyye Berëzki",
  "country": "RU",
  "coord": {
   "lon": 37.366669,
   "lat": 56.866669
  }
 },
 {
  "id": 547560,
  "name": "Klimovsk",
  "country": "RU",
  "coord": {
   "lon": 37.525002,
   "lat": 55.364723
  }
 },
 {
  "id": 498349,
  "name": "Savëlovo",
  "country": "RU",
  "coord": {
   "lon": 37.366669,
   "lat": 56.866669
  }
 },
 {
  "id": 523110,
  "name": "Nazarovo",
  "country": "RU",
  "coord": {
   "lon": 36.616669,
   "lat": 56.066666
  }
 },
 {
  "id": 507614,
  "name": "Pokoyevo",
  "country": "RU",
  "coord": {
   "lon": 36.633331,
   "lat": 56.033333
  }
 },
 {
  "id": 498337,
  "name": "Savel’yevo",
  "country": "RU",
  "coord": {
   "lon": 36.599998,
   "lat": 56
  }
 },
 {
  "id": 565711,
  "name": "Dolevo",
  "country": "RU",
  "coord": {
   "lon": 36.615833,
   "lat": 55.993332
  }
 },
 {
  "id": 538585,
  "name": "Kursakovo-Markovo",
  "country": "RU",
  "coord": {
   "lon": 36.641666,
   "lat": 55.978611
  }
 },
 {
  "id": 562837,
  "name": "Filatovo",
  "country": "RU",
  "coord": {
   "lon": 36.677223,
   "lat": 55.973057
  }
 },
 {
  "id": 561278,
  "name": "Glebovo",
  "country": "RU",
  "coord": {
   "lon": 36.69389,
   "lat": 55.955002
  }
 },
 {
  "id": 571144,
  "name": "Bukarevo",
  "country": "RU",
  "coord": {
   "lon": 36.728889,
   "lat": 55.952499
  }
 },
 {
  "id": 569406,
  "name": "Chepelëvo",
  "country": "RU",
  "coord": {
   "lon": 37.491112,
   "lat": 55.18222
  }
 },
 {
  "id": 476368,
  "name": "Vatutino",
  "country": "RU",
  "coord": {
   "lon": 37.686668,
   "lat": 55.879723
  }
 },
 {
  "id": 547379,
  "name": "Klyaz’ma",
  "country": "RU",
  "coord": {
   "lon": 37.834721,
   "lat": 55.979168
  }
 },
 {
  "id": 503978,
  "name": "Pushkino",
  "country": "RU",
  "coord": {
   "lon": 37.833332,
   "lat": 56.011112
  }
 },
 {
  "id": 528211,
  "name": "Mayskoye",
  "country": "RU",
  "coord": {
   "lon": 37.916668,
   "lat": 56.133331
  }
 },
 {
  "id": 818493,
  "name": "Shchekutina",
  "country": "RU",
  "coord": {
   "lon": 36.699444,
   "lat": 55.327499
  }
 },
 {
  "id": 818486,
  "name": "Rogacheva",
  "country": "RU",
  "coord": {
   "lon": 36.665001,
   "lat": 55.261944
  }
 },
 {
  "id": 818030,
  "name": "Svitino",
  "country": "RU",
  "coord": {
   "lon": 37.372501,
   "lat": 55.306667
  }
 },
 {
  "id": 572275,
  "name": "Borodino",
  "country": "RU",
  "coord": {
   "lon": 36.733334,
   "lat": 56.316666
  }
 },
 {
  "id": 560455,
  "name": "Gol’yevo",
  "country": "RU",
  "coord": {
   "lon": 37.31139,
   "lat": 55.799721
  }
 },
 {
  "id": 575343,
  "name": "Bolokhovo",
  "country": "RU",
  "coord": {
   "lon": 37.818333,
   "lat": 54.093613
  }
 },
 {
  "id": 563249,
  "name": "Fedoreyevka",
  "country": "RU",
  "coord": {
   "lon": 36.147499,
   "lat": 53.004723
  }
 },
 {
  "id": 524844,
  "name": "Mostki",
  "country": "RU",
  "coord": {
   "lon": 36.156666,
   "lat": 52.99139
  }
 },
 {
  "id": 504849,
  "name": "Prokurovka",
  "country": "RU",
  "coord": {
   "lon": 36.133331,
   "lat": 52.983334
  }
 },
 {
  "id": 463043,
  "name": "Zhilina",
  "country": "RU",
  "coord": {
   "lon": 36.083332,
   "lat": 52.983334
  }
 },
 {
  "id": 515012,
  "name": "Orel",
  "country": "RU",
  "coord": {
   "lon": 36.080276,
   "lat": 52.965832
  }
 },
 {
  "id": 559229,
  "name": "Gostishchevo",
  "country": "RU",
  "coord": {
   "lon": 36.655159,
   "lat": 50.779449
  }
 },
 {
  "id": 809954,
  "name": "Muralevo",
  "country": "RU",
  "coord": {
   "lon": 36.294331,
   "lat": 51.79583
  }
 },
 {
  "id": 483828,
  "name": "Tekstil’shchik",
  "country": "RU",
  "coord": {
   "lon": 37.844719,
   "lat": 55.94083
  }
 },
 {
  "id": 817409,
  "name": "Kravtsovo",
  "country": "RU",
  "coord": {
   "lon": 37.807701,
   "lat": 55.05442
  }
 },
 {
  "id": 524901,
  "name": "Moscow",
  "country": "RU",
  "coord": {
   "lon": 37.615555,
   "lat": 55.75222
  }
 },
 {
  "id": 571719,
  "name": "Bratovshchina",
  "country": "RU",
  "coord": {
   "lon": 37.883331,
   "lat": 56.049999
  }
 },
 {
  "id": 526186,
  "name": "Misirevo",
  "country": "RU",
  "coord": {
   "lon": 36.75,
   "lat": 56.266666
  }
 },
 {
  "id": 461835,
  "name": "Zyablikovo",
  "country": "RU",
  "coord": {
   "lon": 37.747501,
   "lat": 55.621387
  }
 },
 {
  "id": 565197,
  "name": "Dorogomilovo",
  "country": "RU",
  "coord": {
   "lon": 37.561668,
   "lat": 55.744999
  }
 },
 {
  "id": 536398,
  "name": "Lefortovo",
  "country": "RU",
  "coord": {
   "lon": 37.692501,
   "lat": 55.760555
  }
 },
 {
  "id": 530123,
  "name": "Malyye Krutitsy",
  "country": "RU",
  "coord": {
   "lon": 37.866669,
   "lat": 55.75
  }
 },
 {
  "id": 503761,
  "name": "Putilkovo",
  "country": "RU",
  "coord": {
   "lon": 37.390556,
   "lat": 55.866112
  }
 },
 {
  "id": 465476,
  "name": "Zakharkovo",
  "country": "RU",
  "coord": {
   "lon": 37.450001,
   "lat": 55.849998
  }
 },
 {
  "id": 6417876,
  "name": "Nagornoye",
  "country": "RU",
  "coord": {
   "lon": 37.627499,
   "lat": 55.904167
  }
 },
 {
  "id": 535966,
  "name": "Leonovo",
  "country": "RU",
  "coord": {
   "lon": 37.644444,
   "lat": 55.842499
  }
 },
 {
  "id": 529368,
  "name": "Marfino",
  "country": "RU",
  "coord": {
   "lon": 37.382221,
   "lat": 55.702778
  }
 },
 {
  "id": 574675,
  "name": "Bol’shaya Setun’",
  "country": "RU",
  "coord": {
   "lon": 37.416668,
   "lat": 55.716667
  }
 },
 {
  "id": 511153,
  "name": "Perovo",
  "country": "RU",
  "coord": {
   "lon": 37.770279,
   "lat": 55.740555
  }
 },
 {
  "id": 467934,
  "name": "Yelino",
  "country": "RU",
  "coord": {
   "lon": 36.766666,
   "lat": 56.25
  }
 },
 {
  "id": 526730,
  "name": "Mikhaylovskoye",
  "country": "RU",
  "coord": {
   "lon": 36.75,
   "lat": 56.233334
  }
 },
 {
  "id": 513921,
  "name": "Otrada",
  "country": "RU",
  "coord": {
   "lon": 36.733334,
   "lat": 56.216667
  }
 },
 {
  "id": 481491,
  "name": "Troitskoye",
  "country": "RU",
  "coord": {
   "lon": 36.716667,
   "lat": 56.200001
  }
 },
 {
  "id": 495391,
  "name": "Shchëkino",
  "country": "RU",
  "coord": {
   "lon": 36.683334,
   "lat": 56.133331
  }
 },
 {
  "id": 482992,
  "name": "Tiliktino",
  "country": "RU",
  "coord": {
   "lon": 36.599998,
   "lat": 56.099998
  }
 },
 {
  "id": 502131,
  "name": "Repnikovo",
  "country": "RU",
  "coord": {
   "lon": 37.480556,
   "lat": 55.183334
  }
 },
 {
  "id": 6417154,
  "name": "Aeroport",
  "country": "RU",
  "coord": {
   "lon": 37.839722,
   "lat": 55.414444
  }
 },
 {
  "id": 484912,
  "name": "Taganskiy",
  "country": "RU",
  "coord": {
   "lon": 37.666668,
   "lat": 55.733334
  }
 },
 {
  "id": 820024,
  "name": "Novotushino",
  "country": "RU",
  "coord": {
   "lon": 37.362221,
   "lat": 55.846943
  }
 },
 {
  "id": 514178,
  "name": "Ostrov",
  "country": "RU",
  "coord": {
   "lon": 37.844444,
   "lat": 55.585278
  }
 },
 {
  "id": 501187,
  "name": "Rostokino",
  "country": "RU",
  "coord": {
   "lon": 37.660831,
   "lat": 55.834167
  }
 },
 {
  "id": 484449,
  "name": "Tarasovka",
  "country": "RU",
  "coord": {
   "lon": 37.81889,
   "lat": 55.963612
  }
 },
 {
  "id": 505597,
  "name": "Pravdinskiy",
  "country": "RU",
  "coord": {
   "lon": 37.849998,
   "lat": 56.066666
  }
 },
 {
  "id": 583491,
  "name": "Alabushevo",
  "country": "RU",
  "coord": {
   "lon": 37.150002,
   "lat": 56.009998
  }
 },
 {
  "id": 471971,
  "name": "Voronki",
  "country": "RU",
  "coord": {
   "lon": 37.270557,
   "lat": 55.794998
  }
 },
 {
  "id": 544123,
  "name": "Kosino",
  "country": "RU",
  "coord": {
   "lon": 37.856388,
   "lat": 55.715
  }
 },
 {
  "id": 514801,
  "name": "Orlovskaya Oblast’",
  "country": "RU",
  "coord": {
   "lon": 36.25,
   "lat": 53
  }
 },
 {
  "id": 571079,
  "name": "Bukreyevo",
  "country": "RU",
  "coord": {
   "lon": 36.537498,
   "lat": 51.716942
  }
 },
 {
  "id": 818031,
  "name": "Chegodayevo",
  "country": "RU",
  "coord": {
   "lon": 37.389999,
   "lat": 55.335831
  }
 },
 {
  "id": 816847,
  "name": "Alekseyevka",
  "country": "RU",
  "coord": {
   "lon": 37.213612,
   "lat": 55.240559
  }
 },
 {
  "id": 797527,
  "name": "Krasnyy Kurgan",
  "country": "RU",
  "coord": {
   "lon": 37.337502,
   "lat": 45.013729
  }
 },
 {
  "id": 544293,
  "name": "Kosaya Gora",
  "country": "RU",
  "coord": {
   "lon": 37.54459,
   "lat": 54.118961
  }
 },
 {
  "id": 824987,
  "name": "Gorod Belgorod",
  "country": "RU",
  "coord": {
   "lon": 36.583328,
   "lat": 50.583328
  }
 },
 {
  "id": 462022,
  "name": "Zubovo",
  "country": "RU",
  "coord": {
   "lon": 36.972752,
   "lat": 60.317951
  }
 },
 {
  "id": 462815,
  "name": "Zhukovka",
  "country": "RU",
  "coord": {
   "lon": 37.51667,
   "lat": 56.48333
  }
 },
 {
  "id": 463053,
  "name": "Zhiletovo",
  "country": "RU",
  "coord": {
   "lon": 36.022251,
   "lat": 54.692162
  }
 },
 {
  "id": 464159,
  "name": "Zavidovo",
  "country": "RU",
  "coord": {
   "lon": 36.533329,
   "lat": 56.533329
  }
 },
 {
  "id": 466314,
  "name": "Yurovka",
  "country": "RU",
  "coord": {
   "lon": 37.418819,
   "lat": 45.1147
  }
 },
 {
  "id": 467238,
  "name": "Yermolino",
  "country": "RU",
  "coord": {
   "lon": 36.595131,
   "lat": 55.194889
  }
 },
 {
  "id": 469577,
  "name": "Yakovlevo",
  "country": "RU",
  "coord": {
   "lon": 36.447842,
   "lat": 50.860329
  }
 },
 {
  "id": 469655,
  "name": "Yakhroma",
  "country": "RU",
  "coord": {
   "lon": 37.48333,
   "lat": 56.299999
  }
 },
 {
  "id": 469960,
  "name": "Vytegra",
  "country": "RU",
  "coord": {
   "lon": 36.448109,
   "lat": 61.006359
  }
 },
 {
  "id": 470268,
  "name": "Vyshneye Dolgoye",
  "country": "RU",
  "coord": {
   "lon": 37.405182,
   "lat": 52.063019
  }
 },
 {
  "id": 471820,
  "name": "Voroshnevo",
  "country": "RU",
  "coord": {
   "lon": 36.01722,
   "lat": 51.652779
  }
 },
 {
  "id": 472306,
  "name": "Volovo",
  "country": "RU",
  "coord": {
   "lon": 37.885399,
   "lat": 52.026588
  }
 },
 {
  "id": 473535,
  "name": "Vinogradovo",
  "country": "RU",
  "coord": {
   "lon": 37.549999,
   "lat": 56.933331
  }
 },
 {
  "id": 473943,
  "name": "Vesyegonsk",
  "country": "RU",
  "coord": {
   "lon": 37.260399,
   "lat": 58.663979
  }
 },
 {
  "id": 475701,
  "name": "Vereya",
  "country": "RU",
  "coord": {
   "lon": 36.17194,
   "lat": 55.344719
  }
 },
 {
  "id": 477039,
  "name": "Varenikovskaya",
  "country": "RU",
  "coord": {
   "lon": 37.641708,
   "lat": 45.12085
  }
 },
 {
  "id": 477795,
  "name": "Ustyuzhna",
  "country": "RU",
  "coord": {
   "lon": 36.432098,
   "lat": 58.839401
  }
 },
 {
  "id": 481580,
  "name": "Troitskiy",
  "country": "RU",
  "coord": {
   "lon": 37.525299,
   "lat": 51.358799
  }
 },
 {
  "id": 482275,
  "name": "Tomarovka",
  "country": "RU",
  "coord": {
   "lon": 36.233089,
   "lat": 50.68338
  }
 },
 {
  "id": 482986,
  "name": "Tim",
  "country": "RU",
  "coord": {
   "lon": 37.124439,
   "lat": 51.622219
  }
 },
 {
  "id": 483575,
  "name": "Teploye",
  "country": "RU",
  "coord": {
   "lon": 37.59026,
   "lat": 53.62022
  }
 },
 {
  "id": 485273,
  "name": "Sychevo",
  "country": "RU",
  "coord": {
   "lon": 36.227852,
   "lat": 55.95771
  }
 },
 {
  "id": 486874,
  "name": "Suda",
  "country": "RU",
  "coord": {
   "lon": 37.558201,
   "lat": 59.152538
  }
 },
 {
  "id": 487246,
  "name": "Strelka",
  "country": "RU",
  "coord": {
   "lon": 37.286499,
   "lat": 45.206329
  }
 },
 {
  "id": 489743,
  "name": "Spasskoye-Lutovinovo",
  "country": "RU",
  "coord": {
   "lon": 36.622971,
   "lat": 53.370121
  }
 },
 {
  "id": 490637,
  "name": "Sonkovo",
  "country": "RU",
  "coord": {
   "lon": 37.15707,
   "lat": 57.77816
  }
 },
 {
  "id": 490976,
  "name": "Solntsevo",
  "country": "RU",
  "coord": {
   "lon": 36.749901,
   "lat": 51.41853
  }
 },
 {
  "id": 492218,
  "name": "Skuratovskiy",
  "country": "RU",
  "coord": {
   "lon": 37.601109,
   "lat": 54.110828
  }
 },
 {
  "id": 492351,
  "name": "Skorodnoye",
  "country": "RU",
  "coord": {
   "lon": 37.227558,
   "lat": 51.071011
  }
 },
 {
  "id": 495922,
  "name": "Shalskiy",
  "country": "RU",
  "coord": {
   "lon": 36.0168,
   "lat": 61.796982
  }
 },
 {
  "id": 496346,
  "name": "Severnyy",
  "country": "RU",
  "coord": {
   "lon": 37.650002,
   "lat": 56.73333
  }
 },
 {
  "id": 496358,
  "name": "Severnyy",
  "country": "RU",
  "coord": {
   "lon": 36.553242,
   "lat": 50.67704
  }
 },
 {
  "id": 498856,
  "name": "Sandovo",
  "country": "RU",
  "coord": {
   "lon": 36.412769,
   "lat": 58.46022
  }
 },
 {
  "id": 499363,
  "name": "Sakharovo",
  "country": "RU",
  "coord": {
   "lon": 36.050152,
   "lat": 56.89949
  }
 },
 {
  "id": 501012,
  "name": "Rozhdestveno",
  "country": "RU",
  "coord": {
   "lon": 37.049351,
   "lat": 55.854439
  }
 },
 {
  "id": 502265,
  "name": "Redkino",
  "country": "RU",
  "coord": {
   "lon": 36.296741,
   "lat": 56.647541
  }
 },
 {
  "id": 502903,
  "name": "Rameshki",
  "country": "RU",
  "coord": {
   "lon": 36.045349,
   "lat": 57.343899
  }
 },
 {
  "id": 503281,
  "name": "Radchenko",
  "country": "RU",
  "coord": {
   "lon": 36.37178,
   "lat": 56.680271
  }
 },
 {
  "id": 503479,
  "name": "Pyatovskiy",
  "country": "RU",
  "coord": {
   "lon": 36.056339,
   "lat": 54.689079
  }
 },
 {
  "id": 503499,
  "name": "Pyatnitskoye",
  "country": "RU",
  "coord": {
   "lon": 37.827301,
   "lat": 50.423302
  }
 },
 {
  "id": 505129,
  "name": "Priupskiy",
  "country": "RU",
  "coord": {
   "lon": 37.736,
   "lat": 53.909599
  }
 },
 {
  "id": 505154,
  "name": "Pristen",
  "country": "RU",
  "coord": {
   "lon": 36.695938,
   "lat": 51.235512
  }
 },
 {
  "id": 506596,
  "name": "Ponyri Vtoryye",
  "country": "RU",
  "coord": {
   "lon": 36.224609,
   "lat": 52.279942
  }
 },
 {
  "id": 507421,
  "name": "Pokrovskoye",
  "country": "RU",
  "coord": {
   "lon": 36.871239,
   "lat": 52.60968
  }
 },
 {
  "id": 509985,
  "name": "Petrovskaya",
  "country": "RU",
  "coord": {
   "lon": 37.955002,
   "lat": 45.431389
  }
 },
 {
  "id": 510899,
  "name": "Pervomayskiy",
  "country": "RU",
  "coord": {
   "lon": 37.508751,
   "lat": 54.044819
  }
 },
 {
  "id": 511400,
  "name": "Peremyshl",
  "country": "RU",
  "coord": {
   "lon": 36.160629,
   "lat": 54.26313
  }
 },
 {
  "id": 514719,
  "name": "Orudyevo",
  "country": "RU",
  "coord": {
   "lon": 37.533329,
   "lat": 56.433331
  }
 },
 {
  "id": 514744,
  "name": "Orsha",
  "country": "RU",
  "coord": {
   "lon": 36.228619,
   "lat": 56.911961
  }
 },
 {
  "id": 519473,
  "name": "Novaya Tavolzhanka",
  "country": "RU",
  "coord": {
   "lon": 36.8298,
   "lat": 50.351231
  }
 },
 {
  "id": 522839,
  "name": "Nekrasovka",
  "country": "RU",
  "coord": {
   "lon": 37.91148,
   "lat": 55.693279
  }
 },
 {
  "id": 525509,
  "name": "Molokovo",
  "country": "RU",
  "coord": {
   "lon": 36.762779,
   "lat": 58.166111
  }
 },
 {
  "id": 527578,
  "name": "Mendeleyevskiy",
  "country": "RU",
  "coord": {
   "lon": 37.582218,
   "lat": 54.152779
  }
 },
 {
  "id": 527697,
  "name": "Melikhovo",
  "country": "RU",
  "coord": {
   "lon": 37.64827,
   "lat": 55.114399
  }
 },
 {
  "id": 528239,
  "name": "Mayskiy",
  "country": "RU",
  "coord": {
   "lon": 36.458778,
   "lat": 50.519878
  }
 },
 {
  "id": 528741,
  "name": "Maslova Pristan",
  "country": "RU",
  "coord": {
   "lon": 36.74081,
   "lat": 50.45874
  }
 },
 {
  "id": 529507,
  "name": "Manturovo",
  "country": "RU",
  "coord": {
   "lon": 37.128201,
   "lat": 51.4547
  }
 },
 {
  "id": 530966,
  "name": "Maloarkhangelsk",
  "country": "RU",
  "coord": {
   "lon": 36.503319,
   "lat": 52.400242
  }
 },
 {
  "id": 534352,
  "name": "Lomintsevskiy",
  "country": "RU",
  "coord": {
   "lon": 37.664711,
   "lat": 53.985481
  }
 },
 {
  "id": 535113,
  "name": "Lipin Bor",
  "country": "RU",
  "coord": {
   "lon": 37.97628,
   "lat": 60.26215
  }
 },
 {
  "id": 535679,
  "name": "Lesnyye Polyany",
  "country": "RU",
  "coord": {
   "lon": 37.866669,
   "lat": 55.966671
  }
 },
 {
  "id": 535741,
  "name": "Lesnoy",
  "country": "RU",
  "coord": {
   "lon": 37.916672,
   "lat": 56.066669
  }
 },
 {
  "id": 536111,
  "name": "Leninskiy",
  "country": "RU",
  "coord": {
   "lon": 37.45583,
   "lat": 54.278061
  }
 },
 {
  "id": 539885,
  "name": "Kudinovo",
  "country": "RU",
  "coord": {
   "lon": 36.253311,
   "lat": 54.99939
  }
 },
 {
  "id": 539946,
  "name": "Kuchugury",
  "country": "RU",
  "coord": {
   "lon": 36.95586,
   "lat": 45.407021
  }
 },
 {
  "id": 540121,
  "name": "Kshenskiy",
  "country": "RU",
  "coord": {
   "lon": 37.713612,
   "lat": 51.840832
  }
 },
 {
  "id": 541704,
  "name": "Krasnyy Kholm",
  "country": "RU",
  "coord": {
   "lon": 37.120319,
   "lat": 58.060699
  }
 },
 {
  "id": 542561,
  "name": "Krasnaya Zarya",
  "country": "RU",
  "coord": {
   "lon": 37.680561,
   "lat": 52.782501
  }
 },
 {
  "id": 542942,
  "name": "Krapivna",
  "country": "RU",
  "coord": {
   "lon": 37.15744,
   "lat": 53.942341
  }
 },
 {
  "id": 543864,
  "name": "Kostrovo",
  "country": "RU",
  "coord": {
   "lon": 36.694908,
   "lat": 55.894291
  }
 },
 {
  "id": 544332,
  "name": "Korzhevskiy",
  "country": "RU",
  "coord": {
   "lon": 37.71949,
   "lat": 45.194141
  }
 },
 {
  "id": 544440,
  "name": "Korsakovo",
  "country": "RU",
  "coord": {
   "lon": 37.356892,
   "lat": 53.267658
  }
 },
 {
  "id": 546092,
  "name": "Kolpny",
  "country": "RU",
  "coord": {
   "lon": 37.036831,
   "lat": 52.22823
  }
 },
 {
  "id": 548383,
  "name": "Kirovskiy",
  "country": "RU",
  "coord": {
   "lon": 36.666672,
   "lat": 51.416672
  }
 },
 {
  "id": 549610,
  "name": "Khomutovo",
  "country": "RU",
  "coord": {
   "lon": 37.438801,
   "lat": 52.853859
  }
 },
 {
  "id": 549854,
  "name": "Khokhlovo",
  "country": "RU",
  "coord": {
   "lon": 37.39978,
   "lat": 59.149231
  }
 },
 {
  "id": 550726,
  "name": "Khanino",
  "country": "RU",
  "coord": {
   "lon": 36.622921,
   "lat": 54.210999
  }
 },
 {
  "id": 553310,
  "name": "Kamyshevatskaya",
  "country": "RU",
  "coord": {
   "lon": 37.956322,
   "lat": 46.413158
  }
 },
 {
  "id": 554767,
  "name": "Izoplit",
  "country": "RU",
  "coord": {
   "lon": 36.221981,
   "lat": 56.62558
  }
 },
 {
  "id": 554806,
  "name": "Izmalkovo",
  "country": "RU",
  "coord": {
   "lon": 37.963982,
   "lat": 52.688702
  }
 },
 {
  "id": 554973,
  "name": "Ivnya",
  "country": "RU",
  "coord": {
   "lon": 36.134258,
   "lat": 51.062939
  }
 },
 {
  "id": 556430,
  "name": "Imeni Zhelyabova",
  "country": "RU",
  "coord": {
   "lon": 36.5956,
   "lat": 58.954399
  }
 },
 {
  "id": 557292,
  "name": "Ilich",
  "country": "RU",
  "coord": {
   "lon": 36.774021,
   "lat": 45.424881
  }
 },
 {
  "id": 559252,
  "name": "Gostagayevskaya",
  "country": "RU",
  "coord": {
   "lon": 37.505112,
   "lat": 45.022839
  }
 },
 {
  "id": 559853,
  "name": "Gorki Vtoryye",
  "country": "RU",
  "coord": {
   "lon": 37.163502,
   "lat": 55.725651
  }
 },
 {
  "id": 559862,
  "name": "Gorki-Leninskiye",
  "country": "RU",
  "coord": {
   "lon": 37.77618,
   "lat": 55.508549
  }
 },
 {
  "id": 561722,
  "name": "Gayduk",
  "country": "RU",
  "coord": {
   "lon": 37.7005,
   "lat": 44.784889
  }
 },
 {
  "id": 562814,
  "name": "Filimonki",
  "country": "RU",
  "coord": {
   "lon": 37.347191,
   "lat": 55.557941
  }
 },
 {
  "id": 562873,
  "name": "Ferzikovo",
  "country": "RU",
  "coord": {
   "lon": 36.75671,
   "lat": 54.519131
  }
 },
 {
  "id": 564517,
  "name": "Dubrovitsy",
  "country": "RU",
  "coord": {
   "lon": 37.486698,
   "lat": 55.43969
  }
 },
 {
  "id": 564723,
  "name": "Dubna",
  "country": "RU",
  "coord": {
   "lon": 36.961731,
   "lat": 54.15416
  }
 },
 {
  "id": 565172,
  "name": "Dorokhovo",
  "country": "RU",
  "coord": {
   "lon": 36.374439,
   "lat": 55.55056
  }
 },
 {
  "id": 567111,
  "name": "Danki",
  "country": "RU",
  "coord": {
   "lon": 37.570091,
   "lat": 54.91806
  }
 },
 {
  "id": 568633,
  "name": "Chernoyerkovskaya",
  "country": "RU",
  "coord": {
   "lon": 37.768608,
   "lat": 45.43306
  }
 },
 {
  "id": 568822,
  "name": "Chernitsyno",
  "country": "RU",
  "coord": {
   "lon": 36.05101,
   "lat": 51.507389
  }
 },
 {
  "id": 569116,
  "name": "Chern",
  "country": "RU",
  "coord": {
   "lon": 36.914501,
   "lat": 53.45232
  }
 },
 {
  "id": 569231,
  "name": "Cherepet",
  "country": "RU",
  "coord": {
   "lon": 36.378769,
   "lat": 54.11784
  }
 },
 {
  "id": 569841,
  "name": "Chashnikovo",
  "country": "RU",
  "coord": {
   "lon": 37.166672,
   "lat": 56.033329
  }
 },
 {
  "id": 571634,
  "name": "Breytovo",
  "country": "RU",
  "coord": {
   "lon": 37.861721,
   "lat": 58.299252
  }
 },
 {
  "id": 572256,
  "name": "Borodinskiy",
  "country": "RU",
  "coord": {
   "lon": 37.817921,
   "lat": 53.998589
  }
 },
 {
  "id": 573302,
  "name": "Bolshoye Skuratovo",
  "country": "RU",
  "coord": {
   "lon": 36.840851,
   "lat": 53.438519
  }
 },
 {
  "id": 574307,
  "name": "Bolshevo",
  "country": "RU",
  "coord": {
   "lon": 37.830021,
   "lat": 55.93486
  }
 },
 {
  "id": 575521,
  "name": "Bogorodskoye",
  "country": "RU",
  "coord": {
   "lon": 37.883331,
   "lat": 56.549999
  }
 },
 {
  "id": 576666,
  "name": "Bessonovka",
  "country": "RU",
  "coord": {
   "lon": 36.301071,
   "lat": 50.52644
  }
 },
 {
  "id": 577548,
  "name": "Belyy Gorodok",
  "country": "RU",
  "coord": {
   "lon": 37.512501,
   "lat": 56.965
  }
 },
 {
  "id": 577711,
  "name": "Belozersk",
  "country": "RU",
  "coord": {
   "lon": 37.795719,
   "lat": 60.032631
  }
 },
 {
  "id": 578283,
  "name": "Bekhteyevka",
  "country": "RU",
  "coord": {
   "lon": 37.20853,
   "lat": 50.807209
  }
 },
 {
  "id": 578940,
  "name": "Barybino",
  "country": "RU",
  "coord": {
   "lon": 37.89333,
   "lat": 55.267681
  }
 },
 {
  "id": 579000,
  "name": "Barsuki",
  "country": "RU",
  "coord": {
   "lon": 37.487461,
   "lat": 54.26548
  }
 },
 {
  "id": 580431,
  "name": "Ateptsevo",
  "country": "RU",
  "coord": {
   "lon": 36.750019,
   "lat": 55.323639
  }
 },
 {
  "id": 580872,
  "name": "Arsenyevo",
  "country": "RU",
  "coord": {
   "lon": 36.664291,
   "lat": 53.73893
  }
 },
 {
  "id": 580994,
  "name": "Arkhangelskoye",
  "country": "RU",
  "coord": {
   "lon": 37.299839,
   "lat": 55.78791
  }
 },
 {
  "id": 582001,
  "name": "Andreyevka",
  "country": "RU",
  "coord": {
   "lon": 37.134998,
   "lat": 55.980282
  }
 },
 {
  "id": 582163,
  "name": "Anastasiyevskaya",
  "country": "RU",
  "coord": {
   "lon": 37.892578,
   "lat": 45.215759
  }
 },
 {
  "id": 584021,
  "name": "Ageyevo",
  "country": "RU",
  "coord": {
   "lon": 36.469269,
   "lat": 54.158829
  }
 },
 {
  "id": 797011,
  "name": "Kontenko",
  "country": "RU",
  "coord": {
   "lon": 36.832218,
   "lat": 45.358059
  }
 },
 {
  "id": 797083,
  "name": "Vyshestebliyevskaya",
  "country": "RU",
  "coord": {
   "lon": 37.018059,
   "lat": 45.19611
  }
 },
 {
  "id": 815857,
  "name": "Kurovskoye",
  "country": "RU",
  "coord": {
   "lon": 36.002621,
   "lat": 54.542992
  }
 },
 {
  "id": 818487,
  "name": "Vorotynsk",
  "country": "RU",
  "coord": {
   "lon": 36.046459,
   "lat": 54.42828
  }
 },
 {
  "id": 824988,
  "name": "Gorod Shebekino",
  "country": "RU",
  "coord": {
   "lon": 36.916672,
   "lat": 50.416672
  }
 },
 {
  "id": 857691,
  "name": "Zhitnevo",
  "country": "RU",
  "coord": {
   "lon": 37.914639,
   "lat": 55.342331
  }
 },
 {
  "id": 866210,
  "name": "Tsibanobalka",
  "country": "RU",
  "coord": {
   "lon": 37.343842,
   "lat": 44.980339
  }
 },
 {
  "id": 866241,
  "name": "Myskhako",
  "country": "RU",
  "coord": {
   "lon": 37.743328,
   "lat": 44.671391
  }
 },
 {
  "id": 867425,
  "name": "Verkhnebakanskiy",
  "country": "RU",
  "coord": {
   "lon": 37.657219,
   "lat": 44.849171
  }
 },
 {
  "id": 819827,
  "name": "Razvilka",
  "country": "RU",
  "coord": {
   "lon": 37.740833,
   "lat": 55.591667
  }
 },
 {
  "id": 6418220,
  "name": "Orekhovo-Borisovo",
  "country": "RU",
  "coord": {
   "lon": 37.725834,
   "lat": 55.616943
  }
 },
 {
  "id": 584374,
  "name": "Abramtsevo",
  "country": "RU",
  "coord": {
   "lon": 37.830002,
   "lat": 55.830002
  }
 },
 {
  "id": 522103,
  "name": "Nikitskoye",
  "country": "RU",
  "coord": {
   "lon": 36.716667,
   "lat": 56.083332
  }
 },
 {
  "id": 480508,
  "name": "Tul’skaya Oblast'",
  "country": "RU",
  "coord": {
   "lon": 37.5,
   "lat": 54
  }
 },
 {
  "id": 492271,
  "name": "Skripovo",
  "country": "RU",
  "coord": {
   "lon": 37.363987,
   "lat": 54.7509
  }
 },
 {
  "id": 491250,
  "name": "Sokol’niki",
  "country": "RU",
  "coord": {
   "lon": 37.683334,
   "lat": 55.799999
  }
 },
 {
  "id": 544727,
  "name": "Korobovo",
  "country": "RU",
  "coord": {
   "lon": 37.823334,
   "lat": 55.534443
  }
 },
 {
  "id": 544535,
  "name": "Korovino",
  "country": "RU",
  "coord": {
   "lon": 37.516666,
   "lat": 55.883331
  }
 },
 {
  "id": 583589,
  "name": "Levoberezhnyy",
  "country": "RU",
  "coord": {
   "lon": 37.48,
   "lat": 55.849998
  }
 },
 {
  "id": 6418836,
  "name": "Alëshkino",
  "country": "RU",
  "coord": {
   "lon": 37.430557,
   "lat": 55.865276
  }
 },
 {
  "id": 535451,
  "name": "Levoberezhnaya",
  "country": "RU",
  "coord": {
   "lon": 37.477222,
   "lat": 55.891945
  }
 },
 {
  "id": 488996,
  "name": "Starbeyevo",
  "country": "RU",
  "coord": {
   "lon": 37.478611,
   "lat": 55.919998
  }
 },
 {
  "id": 535286,
  "name": "Likhachëvo",
  "country": "RU",
  "coord": {
   "lon": 37.491112,
   "lat": 55.923611
  }
 },
 {
  "id": 6417926,
  "name": "Terekhovo",
  "country": "RU",
  "coord": {
   "lon": 37.480831,
   "lat": 55.931667
  }
 },
 {
  "id": 820010,
  "name": "Ivakino",
  "country": "RU",
  "coord": {
   "lon": 37.478333,
   "lat": 55.957222
  }
 },
 {
  "id": 543624,
  "name": "Kotovo",
  "country": "RU",
  "coord": {
   "lon": 37.489445,
   "lat": 55.946945
  }
 },
 {
  "id": 472982,
  "name": "Vodniki",
  "country": "RU",
  "coord": {
   "lon": 37.5,
   "lat": 55.966667
  }
 },
 {
  "id": 550158,
  "name": "Khlebnikovo",
  "country": "RU",
  "coord": {
   "lon": 37.509445,
   "lat": 55.968334
  }
 },
 {
  "id": 550154,
  "name": "Khlebnikovskiy",
  "country": "RU",
  "coord": {
   "lon": 37.516666,
   "lat": 55.966667
  }
 },
 {
  "id": 6418028,
  "name": "Novoaleksandrovo",
  "country": "RU",
  "coord": {
   "lon": 37.554443,
   "lat": 55.980278
  }
 },
 {
  "id": 819950,
  "name": "Semkino",
  "country": "RU",
  "coord": {
   "lon": 37.566666,
   "lat": 55.99778
  }
 },
 {
  "id": 481492,
  "name": "Troitskoye",
  "country": "RU",
  "coord": {
   "lon": 37.574444,
   "lat": 55.980278
  }
 },
 {
  "id": 518041,
  "name": "Novosel’tsevo",
  "country": "RU",
  "coord": {
   "lon": 37.59111,
   "lat": 55.999168
  }
 },
 {
  "id": 567949,
  "name": "Chiverevo",
  "country": "RU",
  "coord": {
   "lon": 37.608055,
   "lat": 55.99139
  }
 },
 {
  "id": 514255,
  "name": "Ostashkovo",
  "country": "RU",
  "coord": {
   "lon": 37.628056,
   "lat": 55.996113
  }
 },
 {
  "id": 490510,
  "name": "Sorokino",
  "country": "RU",
  "coord": {
   "lon": 37.664165,
   "lat": 55.986111
  }
 },
 {
  "id": 527981,
  "name": "Medvedkovo",
  "country": "RU",
  "coord": {
   "lon": 37.650002,
   "lat": 55.866669
  }
 },
 {
  "id": 576699,
  "name": "Beskudnikovo",
  "country": "RU",
  "coord": {
   "lon": 37.560001,
   "lat": 55.860001
  }
 },
 {
  "id": 567513,
  "name": "Churilkovo",
  "country": "RU",
  "coord": {
   "lon": 37.831944,
   "lat": 55.495556
  }
 },
 {
  "id": 509905,
  "name": "Petrovsko-Razumovskoye",
  "country": "RU",
  "coord": {
   "lon": 37.566666,
   "lat": 55.816666
  }
 },
 {
  "id": 492254,
  "name": "Skrylëvo",
  "country": "RU",
  "coord": {
   "lon": 36.766666,
   "lat": 56.733334
  }
 },
 {
  "id": 571445,
  "name": "Brykovo",
  "country": "RU",
  "coord": {
   "lon": 36.738335,
   "lat": 55.944168
  }
 },
 {
  "id": 820140,
  "name": "Gelebovo-Izbishchi",
  "country": "RU",
  "coord": {
   "lon": 36.798058,
   "lat": 55.938057
  }
 },
 {
  "id": 523917,
  "name": "Mykanino",
  "country": "RU",
  "coord": {
   "lon": 36.783054,
   "lat": 55.925278
  }
 },
 {
  "id": 555746,
  "name": "Istra",
  "country": "RU",
  "coord": {
   "lon": 36.864166,
   "lat": 55.917778
  }
 },
 {
  "id": 483654,
  "name": "Tem’yan’",
  "country": "RU",
  "coord": {
   "lon": 37.357849,
   "lat": 54.72929
  }
 },
 {
  "id": 470494,
  "name": "Vydumki",
  "country": "RU",
  "coord": {
   "lon": 37.318699,
   "lat": 54.726643
  }
 },
 {
  "id": 480004,
  "name": "Tyapkino",
  "country": "RU",
  "coord": {
   "lon": 37.29607,
   "lat": 54.72517
  }
 },
 {
  "id": 487321,
  "name": "Strakhovo",
  "country": "RU",
  "coord": {
   "lon": 37.266613,
   "lat": 54.732159
  }
 },
 {
  "id": 578290,
  "name": "Bëkhovo",
  "country": "RU",
  "coord": {
   "lon": 37.253109,
   "lat": 54.757492
  }
 },
 {
  "id": 526157,
  "name": "Mitino",
  "country": "RU",
  "coord": {
   "lon": 37.252396,
   "lat": 54.777386
  }
 },
 {
  "id": 6722511,
  "name": "Veselevo",
  "country": "RU",
  "coord": {
   "lon": 37.265957,
   "lat": 54.786289
  }
 },
 {
  "id": 555904,
  "name": "Iskan’",
  "country": "RU",
  "coord": {
   "lon": 37.294456,
   "lat": 54.792862
  }
 },
 {
  "id": 472684,
  "name": "Volkovichi",
  "country": "RU",
  "coord": {
   "lon": 37.299915,
   "lat": 54.802986
  }
 },
 {
  "id": 537031,
  "name": "Lan’shinskiy",
  "country": "RU",
  "coord": {
   "lon": 37.266338,
   "lat": 54.830173
  }
 },
 {
  "id": 816763,
  "name": "Protva",
  "country": "RU",
  "coord": {
   "lon": 37.297222,
   "lat": 54.842499
  }
 },
 {
  "id": 508167,
  "name": "Podmoklovo",
  "country": "RU",
  "coord": {
   "lon": 37.342892,
   "lat": 54.864292
  }
 },
 {
  "id": 6727721,
  "name": "Skniga",
  "country": "RU",
  "coord": {
   "lon": 37.379276,
   "lat": 54.872719
  }
 },
 {
  "id": 533377,
  "name": "Luk’yanovo",
  "country": "RU",
  "coord": {
   "lon": 37.423553,
   "lat": 54.869431
  }
 },
 {
  "id": 526833,
  "name": "Mikhaylovka",
  "country": "RU",
  "coord": {
   "lon": 37.469597,
   "lat": 54.862656
  }
 },
 {
  "id": 535099,
  "name": "Lipitsy",
  "country": "RU",
  "coord": {
   "lon": 37.481396,
   "lat": 54.847237
  }
 },
 {
  "id": 497791,
  "name": "Selino",
  "country": "RU",
  "coord": {
   "lon": 37.524666,
   "lat": 54.843048
  }
 },
 {
  "id": 6726100,
  "name": "Meshcherinovo",
  "country": "RU",
  "coord": {
   "lon": 37.544315,
   "lat": 54.842281
  }
 },
 {
  "id": 505209,
  "name": "Prisady",
  "country": "RU",
  "coord": {
   "lon": 37.581127,
   "lat": 54.827393
  }
 },
 {
  "id": 494322,
  "name": "Shipilovo",
  "country": "RU",
  "coord": {
   "lon": 37.537632,
   "lat": 54.823868
  }
 },
 {
  "id": 6727912,
  "name": "Karpova-Polyana",
  "country": "RU",
  "coord": {
   "lon": 37.528767,
   "lat": 54.904442
  }
 },
 {
  "id": 6729232,
  "name": "Avtoprokladka",
  "country": "RU",
  "coord": {
   "lon": 37.497517,
   "lat": 54.908566
  }
 },
 {
  "id": 513072,
  "name": "Palikhovo",
  "country": "RU",
  "coord": {
   "lon": 37.49535,
   "lat": 54.916538
  }
 },
 {
  "id": 535532,
  "name": "Levashovo",
  "country": "RU",
  "coord": {
   "lon": 37.507973,
   "lat": 54.934914
  }
 },
 {
  "id": 505576,
  "name": "Pravoye Yashcherevo",
  "country": "RU",
  "coord": {
   "lon": 37.516457,
   "lat": 54.946922
  }
 },
 {
  "id": 553691,
  "name": "Kamenka",
  "country": "RU",
  "coord": {
   "lon": 37.464596,
   "lat": 54.956604
  }
 },
 {
  "id": 533498,
  "name": "Lukino",
  "country": "RU",
  "coord": {
   "lon": 37.464836,
   "lat": 54.975243
  }
 },
 {
  "id": 485342,
  "name": "S”yanovo",
  "country": "RU",
  "coord": {
   "lon": 37.419109,
   "lat": 54.990738
  }
 },
 {
  "id": 476540,
  "name": "Vasil’yevskoye",
  "country": "RU",
  "coord": {
   "lon": 37.422489,
   "lat": 55.002087
  }
 },
 {
  "id": 501787,
  "name": "Rodionovka",
  "country": "RU",
  "coord": {
   "lon": 37.428612,
   "lat": 55.021942
  }
 },
 {
  "id": 517122,
  "name": "Novyye Kuz’mënki",
  "country": "RU",
  "coord": {
   "lon": 37.430832,
   "lat": 55.03278
  }
 },
 {
  "id": 6415561,
  "name": "Ryzhkovo",
  "country": "RU",
  "coord": {
   "lon": 37.447498,
   "lat": 55.039444
  }
 },
 {
  "id": 472363,
  "name": "Volosovo",
  "country": "RU",
  "coord": {
   "lon": 37.43861,
   "lat": 55.070278
  }
 },
 {
  "id": 817085,
  "name": "Grishenki",
  "country": "RU",
  "coord": {
   "lon": 37.431389,
   "lat": 55.094444
  }
 },
 {
  "id": 529492,
  "name": "Manushkino",
  "country": "RU",
  "coord": {
   "lon": 37.456944,
   "lat": 55.114445
  }
 },
 {
  "id": 465783,
  "name": "Zachat’ye",
  "country": "RU",
  "coord": {
   "lon": 37.451942,
   "lat": 55.134724
  }
 },
 {
  "id": 569591,
  "name": "Chekhov",
  "country": "RU",
  "coord": {
   "lon": 37.471111,
   "lat": 55.143055
  }
 },
 {
  "id": 6416015,
  "name": "Ugleshchnya",
  "country": "RU",
  "coord": {
   "lon": 37.503334,
   "lat": 55.204445
  }
 },
 {
  "id": 6416010,
  "name": "Berëzki",
  "country": "RU",
  "coord": {
   "lon": 37.499443,
   "lat": 55.218334
  }
 },
 {
  "id": 566355,
  "name": "Detkovo",
  "country": "RU",
  "coord": {
   "lon": 37.507221,
   "lat": 55.2225
  }
 },
 {
  "id": 565940,
  "name": "Dmitrovka",
  "country": "RU",
  "coord": {
   "lon": 37.497501,
   "lat": 55.245556
  }
 },
 {
  "id": 495746,
  "name": "Sharapovo",
  "country": "RU",
  "coord": {
   "lon": 37.530277,
   "lat": 55.235279
  }
 },
 {
  "id": 532477,
  "name": "Lyubuchany",
  "country": "RU",
  "coord": {
   "lon": 37.545555,
   "lat": 55.25111
  }
 },
 {
  "id": 6416065,
  "name": "Posëlok Lyubuchany",
  "country": "RU",
  "coord": {
   "lon": 37.580555,
   "lat": 55.246944
  }
 },
 {
  "id": 461794,
  "name": "Zykeyevo",
  "country": "RU",
  "coord": {
   "lon": 37.595833,
   "lat": 55.256943
  }
 },
 {
  "id": 481499,
  "name": "Troitskoye",
  "country": "RU",
  "coord": {
   "lon": 37.62389,
   "lat": 55.24472
  }
 },
 {
  "id": 581459,
  "name": "Antropovo",
  "country": "RU",
  "coord": {
   "lon": 37.650002,
   "lat": 55.25
  }
 },
 {
  "id": 817262,
  "name": "Pospelikha",
  "country": "RU",
  "coord": {
   "lon": 37.617779,
   "lat": 55.226944
  }
 },
 {
  "id": 817261,
  "name": "Alekseyevskiye",
  "country": "RU",
  "coord": {
   "lon": 37.669998,
   "lat": 55.209999
  }
 },
 {
  "id": 487505,
  "name": "Stepygino",
  "country": "RU",
  "coord": {
   "lon": 37.709721,
   "lat": 55.209721
  }
 },
 {
  "id": 565766,
  "name": "Dobrynikha",
  "country": "RU",
  "coord": {
   "lon": 37.700279,
   "lat": 55.181946
  }
 },
 {
  "id": 512262,
  "name": "Povadino",
  "country": "RU",
  "coord": {
   "lon": 37.744999,
   "lat": 55.181946
  }
 },
 {
  "id": 6415921,
  "name": "Stupino",
  "country": "RU",
  "coord": {
   "lon": 37.782223,
   "lat": 55.193333
  }
 },
 {
  "id": 817505,
  "name": "Barybino",
  "country": "RU",
  "coord": {
   "lon": 37.830002,
   "lat": 55.220001
  }
 },
 {
  "id": 475923,
  "name": "Vel’yaminovo",
  "country": "RU",
  "coord": {
   "lon": 37.869446,
   "lat": 55.196667
  }
 },
 {
  "id": 6416030,
  "name": "Shebocheyevo",
  "country": "RU",
  "coord": {
   "lon": 37.839443,
   "lat": 55.223331
  }
 },
 {
  "id": 817521,
  "name": "Кузьминское",
  "country": "RU",
  "coord": {
   "lon": 37.879723,
   "lat": 55.25111
  }
 },
 {
  "id": 539062,
  "name": "Kupchinino",
  "country": "RU",
  "coord": {
   "lon": 37.833889,
   "lat": 55.257778
  }
 },
 {
  "id": 502666,
  "name": "Rastunovo",
  "country": "RU",
  "coord": {
   "lon": 37.831944,
   "lat": 55.265556
  }
 },
 {
  "id": 6416307,
  "name": "Agrogorod",
  "country": "RU",
  "coord": {
   "lon": 37.839317,
   "lat": 55.274078
  }
 },
 {
  "id": 495115,
  "name": "Shebantsevo",
  "country": "RU",
  "coord": {
   "lon": 37.802223,
   "lat": 55.31361
  }
 },
 {
  "id": 527342,
  "name": "Metkino",
  "country": "RU",
  "coord": {
   "lon": 37.829445,
   "lat": 55.337502
  }
 },
 {
  "id": 817701,
  "name": "Vakhromeyevo",
  "country": "RU",
  "coord": {
   "lon": 37.77,
   "lat": 55.34
  }
 },
 {
  "id": 6416809,
  "name": "Posëlok Sanatoriya Podmoskov’ye",
  "country": "RU",
  "coord": {
   "lon": 37.765835,
   "lat": 55.377499
  }
 },
 {
  "id": 471457,
  "name": "Vostryakovo",
  "country": "RU",
  "coord": {
   "lon": 37.811111,
   "lat": 55.400555
  }
 },
 {
  "id": 817731,
  "name": "Skripino",
  "country": "RU",
  "coord": {
   "lon": 37.840832,
   "lat": 55.409443
  }
 },
 {
  "id": 480376,
  "name": "Tupitsyno",
  "country": "RU",
  "coord": {
   "lon": 37.862221,
   "lat": 55.440556
  }
 },
 {
  "id": 494116,
  "name": "Shishkino",
  "country": "RU",
  "coord": {
   "lon": 37.849445,
   "lat": 55.452778
  }
 },
 {
  "id": 6417169,
  "name": "Voyevodino",
  "country": "RU",
  "coord": {
   "lon": 37.849724,
   "lat": 55.472221
  }
 },
 {
  "id": 545999,
  "name": "Kolychëvo",
  "country": "RU",
  "coord": {
   "lon": 37.857777,
   "lat": 55.491943
  }
 },
 {
  "id": 533493,
  "name": "Lukino",
  "country": "RU",
  "coord": {
   "lon": 37.855556,
   "lat": 55.506943
  }
 },
 {
  "id": 509981,
  "name": "Petrovskaya",
  "country": "RU",
  "coord": {
   "lon": 37.783333,
   "lat": 55.549999
  }
 },
 {
  "id": 581364,
  "name": "Aparinki",
  "country": "RU",
  "coord": {
   "lon": 37.75,
   "lat": 55.57
  }
 },
 {
  "id": 580637,
  "name": "Ashcherino",
  "country": "RU",
  "coord": {
   "lon": 37.759998,
   "lat": 55.580002
  }
 },
 {
  "id": 572449,
  "name": "Orekhovo-Borisovo Yuzhnoye",
  "country": "RU",
  "coord": {
   "lon": 37.735279,
   "lat": 55.604168
  }
 },
 {
  "id": 515027,
  "name": "Orekhovo-Borisovo Severnoye",
  "country": "RU",
  "coord": {
   "lon": 37.704445,
   "lat": 55.618057
  }
 },
 {
  "id": 495472,
  "name": "Shaydorovo",
  "country": "RU",
  "coord": {
   "lon": 37.683334,
   "lat": 55.633331
  }
 },
 {
  "id": 517161,
  "name": "Novyye Cherëmushki",
  "country": "RU",
  "coord": {
   "lon": 37.553612,
   "lat": 55.671944
  }
 },
 {
  "id": 514284,
  "name": "Ostankinskiy",
  "country": "RU",
  "coord": {
   "lon": 37.633331,
   "lat": 55.816666
  }
 },
 {
  "id": 507338,
  "name": "Pokrovskoye-Streshnëvo",
  "country": "RU",
  "coord": {
   "lon": 37.466667,
   "lat": 55.816666
  }
 },
 {
  "id": 487150,
  "name": "Strogino",
  "country": "RU",
  "coord": {
   "lon": 37.399166,
   "lat": 55.806667
  }
 },
 {
  "id": 491280,
  "name": "Sokol",
  "country": "RU",
  "coord": {
   "lon": 37.500832,
   "lat": 55.806946
  }
 },
 {
  "id": 536098,
  "name": "Leninskiye Gory",
  "country": "RU",
  "coord": {
   "lon": 37.566666,
   "lat": 55.700001
  }
 },
 {
  "id": 542634,
  "name": "Presnenskiy",
  "country": "RU",
  "coord": {
   "lon": 37.551388,
   "lat": 55.760834
  }
 },
 {
  "id": 577603,
  "name": "Kon’kovo",
  "country": "RU",
  "coord": {
   "lon": 37.66,
   "lat": 55.650002
  }
 },
 {
  "id": 514827,
  "name": "Orlovo",
  "country": "RU",
  "coord": {
   "lon": 37.878613,
   "lat": 55.554722
  }
 },
 {
  "id": 480346,
  "name": "Turayevo",
  "country": "RU",
  "coord": {
   "lon": 37.943333,
   "lat": 55.563332
  }
 },
 {
  "id": 575664,
  "name": "Bogdanikha",
  "country": "RU",
  "coord": {
   "lon": 37.876667,
   "lat": 55.538334
  }
 },
 {
  "id": 526565,
  "name": "Mil’kovo",
  "country": "RU",
  "coord": {
   "lon": 37.795555,
   "lat": 55.607777
  }
 },
 {
  "id": 564955,
  "name": "Drozdovo",
  "country": "RU",
  "coord": {
   "lon": 37.801109,
   "lat": 55.605
  }
 },
 {
  "id": 465057,
  "name": "Zamoskvorech’ye",
  "country": "RU",
  "coord": {
   "lon": 37.633331,
   "lat": 55.733334
  }
 },
 {
  "id": 543254,
  "name": "Kozhukhovo",
  "country": "RU",
  "coord": {
   "lon": 37.671944,
   "lat": 55.706669
  }
 },
 {
  "id": 499540,
  "name": "Nagatino-Sadovniki",
  "country": "RU",
  "coord": {
   "lon": 37.655556,
   "lat": 55.672222
  }
 },
 {
  "id": 499622,
  "name": "Moskvorech’ye-Saburovo",
  "country": "RU",
  "coord": {
   "lon": 37.670834,
   "lat": 55.645279
  }
 },
 {
  "id": 536164,
  "name": "Tsaritsyno",
  "country": "RU",
  "coord": {
   "lon": 37.656387,
   "lat": 55.626667
  }
 },
 {
  "id": 494315,
  "name": "Shipilovo",
  "country": "RU",
  "coord": {
   "lon": 37.700001,
   "lat": 55.633331
  }
 },
 {
  "id": 563827,
  "name": "D’yakovskoye",
  "country": "RU",
  "coord": {
   "lon": 37.666668,
   "lat": 55.650002
  }
 },
 {
  "id": 475092,
  "name": "Verkhniye Kotly",
  "country": "RU",
  "coord": {
   "lon": 37.61639,
   "lat": 55.676666
  }
 },
 {
  "id": 520718,
  "name": "Nizhniye Kotly",
  "country": "RU",
  "coord": {
   "lon": 37.611668,
   "lat": 55.68639
  }
 },
 {
  "id": 533067,
  "name": "Luzhniki",
  "country": "RU",
  "coord": {
   "lon": 37.553761,
   "lat": 55.715992
  }
 },
 {
  "id": 472079,
  "name": "Vorob’yëvo",
  "country": "RU",
  "coord": {
   "lon": 37.533333,
   "lat": 55.716667
  }
 },
 {
  "id": 505837,
  "name": "Potylikha",
  "country": "RU",
  "coord": {
   "lon": 37.533333,
   "lat": 55.733334
  }
 },
 {
  "id": 506056,
  "name": "Posëlok Stroiteley",
  "country": "RU",
  "coord": {
   "lon": 37.633331,
   "lat": 55.666668
  }
 },
 {
  "id": 506043,
  "name": "Kotlovka",
  "country": "RU",
  "coord": {
   "lon": 37.616669,
   "lat": 55.666668
  }
 },
 {
  "id": 488324,
  "name": "Staroye Savëlovo",
  "country": "RU",
  "coord": {
   "lon": 37.383331,
   "lat": 56.883331
  }
 },
 {
  "id": 514175,
  "name": "Ostrov",
  "country": "RU",
  "coord": {
   "lon": 37.433334,
   "lat": 56.900002
  }
 },
 {
  "id": 492234,
  "name": "Skulino",
  "country": "RU",
  "coord": {
   "lon": 37.466667,
   "lat": 56.916668
  }
 },
 {
  "id": 527706,
  "name": "Mel’gunovo",
  "country": "RU",
  "coord": {
   "lon": 37.433334,
   "lat": 56.950001
  }
 },
 {
  "id": 508993,
  "name": "Pleshkovo",
  "country": "RU",
  "coord": {
   "lon": 37.450001,
   "lat": 56.983334
  }
 },
 {
  "id": 828963,
  "name": "Selishche",
  "country": "RU",
  "coord": {
   "lon": 37.426945,
   "lat": 57.010555
  }
 },
 {
  "id": 526604,
  "name": "Mikulino",
  "country": "RU",
  "coord": {
   "lon": 37.483334,
   "lat": 57.033333
  }
 },
 {
  "id": 528015,
  "name": "Medveditskoye",
  "country": "RU",
  "coord": {
   "lon": 37.516666,
   "lat": 57.083332
  }
 },
 {
  "id": 554453,
  "name": "Kokorikha",
  "country": "RU",
  "coord": {
   "lon": 37.416668,
   "lat": 57.099998
  }
 },
 {
  "id": 478093,
  "name": "Ustinovo",
  "country": "RU",
  "coord": {
   "lon": 37.323612,
   "lat": 57.080833
  }
 },
 {
  "id": 566731,
  "name": "Demidovo",
  "country": "RU",
  "coord": {
   "lon": 37.266666,
   "lat": 57.066666
  }
 },
 {
  "id": 580305,
  "name": "Avdeyevo",
  "country": "RU",
  "coord": {
   "lon": 37.25,
   "lat": 57.060001
  }
 },
 {
  "id": 471887,
  "name": "Vorontsovo",
  "country": "RU",
  "coord": {
   "lon": 37.233334,
   "lat": 57.016666
  }
 },
 {
  "id": 530629,
  "name": "Maloye Ogryzlovo",
  "country": "RU",
  "coord": {
   "lon": 37.200001,
   "lat": 57
  }
 },
 {
  "id": 573444,
  "name": "Bol’shoye Ogryzkovo",
  "country": "RU",
  "coord": {
   "lon": 37.183334,
   "lat": 57
  }
 },
 {
  "id": 557100,
  "name": "Ilinskoye",
  "country": "RU",
  "coord": {
   "lon": 37.183334,
   "lat": 56.966667
  }
 },
 {
  "id": 543997,
  "name": "Kostenëvo",
  "country": "RU",
  "coord": {
   "lon": 37.216667,
   "lat": 56.933334
  }
 },
 {
  "id": 507278,
  "name": "Polevaya",
  "country": "RU",
  "coord": {
   "lon": 37.333332,
   "lat": 56.900002
  }
 },
 {
  "id": 572349,
  "name": "Borki",
  "country": "RU",
  "coord": {
   "lon": 37.349998,
   "lat": 56.799999
  }
 },
 {
  "id": 547693,
  "name": "Kletino",
  "country": "RU",
  "coord": {
   "lon": 37.299999,
   "lat": 56.799999
  }
 },
 {
  "id": 505182,
  "name": "Prislon",
  "country": "RU",
  "coord": {
   "lon": 37.266666,
   "lat": 56.799999
  }
 },
 {
  "id": 472795,
  "name": "Voldyn’",
  "country": "RU",
  "coord": {
   "lon": 37.316666,
   "lat": 56.733334
  }
 },
 {
  "id": 583087,
  "name": "Aleksandrovka",
  "country": "RU",
  "coord": {
   "lon": 37.25,
   "lat": 56.75
  }
 },
 {
  "id": 508504,
  "name": "Podberez’ye",
  "country": "RU",
  "coord": {
   "lon": 37.166668,
   "lat": 56.766666
  }
 },
 {
  "id": 518830,
  "name": "Novo-Ivan’kovo",
  "country": "RU",
  "coord": {
   "lon": 37.200001,
   "lat": 56.75
  }
 },
 {
  "id": 564719,
  "name": "Dubna",
  "country": "RU",
  "coord": {
   "lon": 37.166668,
   "lat": 56.733334
  }
 },
 {
  "id": 543198,
  "name": "Kozlaki",
  "country": "RU",
  "coord": {
   "lon": 37.200001,
   "lat": 56.700001
  }
 },
 {
  "id": 575505,
  "name": "Bogorodskoye",
  "country": "RU",
  "coord": {
   "lon": 37.716667,
   "lat": 55.816666
  }
 },
 {
  "id": 569495,
  "name": "Chelobit’yevo",
  "country": "RU",
  "coord": {
   "lon": 37.672222,
   "lat": 55.905834
  }
 },
 {
  "id": 496262,
  "name": "Severyanin",
  "country": "RU",
  "coord": {
   "lon": 37.666668,
   "lat": 55.849998
  }
 },
 {
  "id": 483904,
  "name": "Tayninskiy",
  "country": "RU",
  "coord": {
   "lon": 37.733334,
   "lat": 55.900002
  }
 },
 {
  "id": 530088,
  "name": "Yaroslavskiy",
  "country": "RU",
  "coord": {
   "lon": 37.721668,
   "lat": 55.88139
  }
 },
 {
  "id": 564912,
  "name": "Druzhba",
  "country": "RU",
  "coord": {
   "lon": 37.740276,
   "lat": 55.885555
  }
 },
 {
  "id": 538979,
  "name": "Kurakino",
  "country": "RU",
  "coord": {
   "lon": 37.833332,
   "lat": 55.916668
  }
 },
 {
  "id": 6417879,
  "name": "Torfopredpriyatiye",
  "country": "RU",
  "coord": {
   "lon": 37.853889,
   "lat": 55.889442
  }
 },
 {
  "id": 477283,
  "name": "Valentinovka",
  "country": "RU",
  "coord": {
   "lon": 37.889999,
   "lat": 55.909168
  }
 },
 {
  "id": 507854,
  "name": "Pogonnyy",
  "country": "RU",
  "coord": {
   "lon": 37.876389,
   "lat": 55.871666
  }
 },
 {
  "id": 533487,
  "name": "Lukino",
  "country": "RU",
  "coord": {
   "lon": 37.926388,
   "lat": 55.830833
  }
 },
 {
  "id": 552103,
  "name": "Kartino",
  "country": "RU",
  "coord": {
   "lon": 37.786945,
   "lat": 55.586109
  }
 },
 {
  "id": 529644,
  "name": "Mamonovo",
  "country": "RU",
  "coord": {
   "lon": 37.808613,
   "lat": 55.59639
  }
 },
 {
  "id": 526289,
  "name": "Misaylovo",
  "country": "RU",
  "coord": {
   "lon": 37.82,
   "lat": 55.563332
  }
 },
 {
  "id": 525510,
  "name": "Molokovo",
  "country": "RU",
  "coord": {
   "lon": 37.871113,
   "lat": 55.561943
  }
 },
 {
  "id": 581928,
  "name": "Andreyevskoye",
  "country": "RU",
  "coord": {
   "lon": 37.919998,
   "lat": 55.549999
  }
 },
 {
  "id": 482655,
  "name": "Titovo",
  "country": "RU",
  "coord": {
   "lon": 37.957222,
   "lat": 55.548332
  }
 },
 {
  "id": 520907,
  "name": "Nizhneye Myachkovo",
  "country": "RU",
  "coord": {
   "lon": 37.973331,
   "lat": 55.541111
  }
 },
 {
  "id": 463801,
  "name": "Zelënaya Sloboda",
  "country": "RU",
  "coord": {
   "lon": 37.997501,
   "lat": 55.526943
  }
 },
 {
  "id": 6416317,
  "name": "Karavayevo",
  "country": "RU",
  "coord": {
   "lon": 37.962223,
   "lat": 55.296112
  }
 },
 {
  "id": 477622,
  "name": "Uvarovo",
  "country": "RU",
  "coord": {
   "lon": 37.943611,
   "lat": 55.284721
  }
 },
 {
  "id": 6416311,
  "name": "Gal’chino",
  "country": "RU",
  "coord": {
   "lon": 37.895279,
   "lat": 55.276112
  }
 },
 {
  "id": 817687,
  "name": "Yarlykovo",
  "country": "RU",
  "coord": {
   "lon": 37.859444,
   "lat": 55.27861
  }
 },
 {
  "id": 817685,
  "name": "Uvarovo",
  "country": "RU",
  "coord": {
   "lon": 37.809166,
   "lat": 55.256111
  }
 },
 {
  "id": 494105,
  "name": "Shishkino",
  "country": "RU",
  "coord": {
   "lon": 37.759445,
   "lat": 55.26889
  }
 },
 {
  "id": 817959,
  "name": "Minayevo",
  "country": "RU",
  "coord": {
   "lon": 37.739166,
   "lat": 55.277779
  }
 },
 {
  "id": 487446,
  "name": "Stolbishchevo",
  "country": "RU",
  "coord": {
   "lon": 37.716667,
   "lat": 55.266666
  }
 },
 {
  "id": 493128,
  "name": "Sidorikha",
  "country": "RU",
  "coord": {
   "lon": 37.671112,
   "lat": 55.254723
  }
 },
 {
  "id": 527416,
  "name": "Meshcherskoye",
  "country": "RU",
  "coord": {
   "lon": 37.62278,
   "lat": 55.277222
  }
 },
 {
  "id": 6416076,
  "name": "Tamarovo",
  "country": "RU",
  "coord": {
   "lon": 37.610001,
   "lat": 55.267223
  }
 },
 {
  "id": 6416078,
  "name": "Botvinino",
  "country": "RU",
  "coord": {
   "lon": 37.603058,
   "lat": 55.258888
  }
 },
 {
  "id": 582846,
  "name": "Alekseyevka",
  "country": "RU",
  "coord": {
   "lon": 37.799999,
   "lat": 55.630001
  }
 },
 {
  "id": 553034,
  "name": "Kapotnya",
  "country": "RU",
  "coord": {
   "lon": 37.803055,
   "lat": 55.643333
  }
 },
 {
  "id": 566547,
  "name": "Denis’yevo",
  "country": "RU",
  "coord": {
   "lon": 37.833332,
   "lat": 55.633331
  }
 },
 {
  "id": 563705,
  "name": "Dzerzhinskiy",
  "country": "RU",
  "coord": {
   "lon": 37.846943,
   "lat": 55.628613
  }
 },
 {
  "id": 532657,
  "name": "Lytkarino",
  "country": "RU",
  "coord": {
   "lon": 37.905834,
   "lat": 55.58139
  }
 },
 {
  "id": 819825,
  "name": "Shchegolevo",
  "country": "RU",
  "coord": {
   "lon": 37.960556,
   "lat": 55.5275
  }
 },
 {
  "id": 502270,
  "name": "Red’kino",
  "country": "RU",
  "coord": {
   "lon": 37.966667,
   "lat": 55.518612
  }
 },
 {
  "id": 504505,
  "name": "Prudki",
  "country": "RU",
  "coord": {
   "lon": 37.953888,
   "lat": 55.516666
  }
 },
 {
  "id": 6417174,
  "name": "Malaya Volodarka",
  "country": "RU",
  "coord": {
   "lon": 37.958332,
   "lat": 55.49889
  }
 },
 {
  "id": 545284,
  "name": "Konstantinovo",
  "country": "RU",
  "coord": {
   "lon": 37.981388,
   "lat": 55.488888
  }
 },
 {
  "id": 508957,
  "name": "Pletenikha",
  "country": "RU",
  "coord": {
   "lon": 37.947777,
   "lat": 55.473057
  }
 },
 {
  "id": 6417172,
  "name": "Novlyanskoye",
  "country": "RU",
  "coord": {
   "lon": 37.935001,
   "lat": 55.461388
  }
 },
 {
  "id": 497171,
  "name": "Semivragi",
  "country": "RU",
  "coord": {
   "lon": 37.890278,
   "lat": 55.485001
  }
 },
 {
  "id": 517436,
  "name": "Novoye Rostokino",
  "country": "RU",
  "coord": {
   "lon": 37.666668,
   "lat": 55.849998
  }
 },
 {
  "id": 579870,
  "name": "Babushkin",
  "country": "RU",
  "coord": {
   "lon": 37.68,
   "lat": 55.869999
  }
 },
 {
  "id": 511199,
  "name": "Perlovka",
  "country": "RU",
  "coord": {
   "lon": 37.72028,
   "lat": 55.892502
  }
 },
 {
  "id": 523812,
  "name": "Mytishchi",
  "country": "RU",
  "coord": {
   "lon": 37.733891,
   "lat": 55.90889
  }
 },
 {
  "id": 500566,
  "name": "Rupasovo",
  "country": "RU",
  "coord": {
   "lon": 37.75,
   "lat": 55.933334
  }
 },
 {
  "id": 569476,
  "name": "Chelyuskinskiy",
  "country": "RU",
  "coord": {
   "lon": 37.808334,
   "lat": 55.95639
  }
 },
 {
  "id": 503977,
  "name": "Pushkino",
  "country": "RU",
  "coord": {
   "lon": 37.866669,
   "lat": 56.017223
  }
 },
 {
  "id": 463739,
  "name": "Zelënyy Gorod",
  "country": "RU",
  "coord": {
   "lon": 37.866669,
   "lat": 56.049999
  }
 },
 {
  "id": 463826,
  "name": "Zelenogradskiy",
  "country": "RU",
  "coord": {
   "lon": 37.916668,
   "lat": 56.099998
  }
 },
 {
  "id": 491352,
  "name": "Sofrino",
  "country": "RU",
  "coord": {
   "lon": 37.933334,
   "lat": 56.150002
  }
 },
 {
  "id": 580597,
  "name": "Ashukino",
  "country": "RU",
  "coord": {
   "lon": 37.950001,
   "lat": 56.16
  }
 },
 {
  "id": 554052,
  "name": "Kalistovo",
  "country": "RU",
  "coord": {
   "lon": 37.950001,
   "lat": 56.166668
  }
 },
 {
  "id": 476612,
  "name": "Vasil’yevo",
  "country": "RU",
  "coord": {
   "lon": 37.966667,
   "lat": 56.200001
  }
 },
 {
  "id": 584373,
  "name": "Abramtsevo",
  "country": "RU",
  "coord": {
   "lon": 37.959999,
   "lat": 56.23
  }
 },
 {
  "id": 526146,
  "name": "Mitino",
  "country": "RU",
  "coord": {
   "lon": 37.983334,
   "lat": 56.25
  }
 },
 {
  "id": 549373,
  "name": "Khotkovo",
  "country": "RU",
  "coord": {
   "lon": 37.995441,
   "lat": 56.256989
  }
 },
 {
  "id": 535108,
  "name": "Lipitino",
  "country": "RU",
  "coord": {
   "lon": 37.99139,
   "lat": 55.103058
  }
 },
 {
  "id": 817459,
  "name": "Астафьево",
  "country": "RU",
  "coord": {
   "lon": 37.970001,
   "lat": 55.099998
  }
 },
 {
  "id": 526652,
  "name": "Mikhnevo",
  "country": "RU",
  "coord": {
   "lon": 37.952221,
   "lat": 55.12722
  }
 },
 {
  "id": 526651,
  "name": "Mikhnevo",
  "country": "RU",
  "coord": {
   "lon": 37.944721,
   "lat": 55.134724
  }
 },
 {
  "id": 493089,
  "name": "Sidorovo",
  "country": "RU",
  "coord": {
   "lon": 37.925835,
   "lat": 55.156113
  }
 },
 {
  "id": 478485,
  "name": "Usady",
  "country": "RU",
  "coord": {
   "lon": 37.895832,
   "lat": 55.145279
  }
 },
 {
  "id": 537830,
  "name": "Kuz’mino",
  "country": "RU",
  "coord": {
   "lon": 37.880554,
   "lat": 55.146389
  }
 },
 {
  "id": 6415854,
  "name": "Koros’kovo",
  "country": "RU",
  "coord": {
   "lon": 37.857498,
   "lat": 55.159443
  }
 },
 {
  "id": 6415853,
  "name": "Mitino",
  "country": "RU",
  "coord": {
   "lon": 37.839169,
   "lat": 55.161388
  }
 },
 {
  "id": 6415927,
  "name": "Paryshevo",
  "country": "RU",
  "coord": {
   "lon": 37.826668,
   "lat": 55.165558
  }
 },
 {
  "id": 560692,
  "name": "Glotayevo",
  "country": "RU",
  "coord": {
   "lon": 37.800835,
   "lat": 55.166943
  }
 },
 {
  "id": 546914,
  "name": "Kochenyagino",
  "country": "RU",
  "coord": {
   "lon": 37.727501,
   "lat": 55.171944
  }
 },
 {
  "id": 476228,
  "name": "Vedishchevo",
  "country": "RU",
  "coord": {
   "lon": 37.664722,
   "lat": 55.168331
  }
 },
 {
  "id": 515975,
  "name": "Oksino",
  "country": "RU",
  "coord": {
   "lon": 37.594444,
   "lat": 55.158333
  }
 },
 {
  "id": 487441,
  "name": "Stolbovaya",
  "country": "RU",
  "coord": {
   "lon": 37.485279,
   "lat": 55.252777
  }
 },
 {
  "id": 525554,
  "name": "Molodi",
  "country": "RU",
  "coord": {
   "lon": 37.507221,
   "lat": 55.265835
  }
 },
 {
  "id": 818027,
  "name": "Zmeyëvka",
  "country": "RU",
  "coord": {
   "lon": 37.487499,
   "lat": 55.266388
  }
 },
 {
  "id": 498867,
  "name": "Sandarovo",
  "country": "RU",
  "coord": {
   "lon": 37.446667,
   "lat": 55.24889
  }
 },
 {
  "id": 462878,
  "name": "Zhokhovo",
  "country": "RU",
  "coord": {
   "lon": 37.378334,
   "lat": 55.270279
  }
 },
 {
  "id": 470743,
  "name": "Vyatkino",
  "country": "RU",
  "coord": {
   "lon": 37.361668,
   "lat": 55.264721
  }
 },
 {
  "id": 568902,
  "name": "Chernetskoye",
  "country": "RU",
  "coord": {
   "lon": 37.326389,
   "lat": 55.250832
  }
 },
 {
  "id": 518852,
  "name": "Novogromovo",
  "country": "RU",
  "coord": {
   "lon": 37.230556,
   "lat": 55.270832
  }
 },
 {
  "id": 575466,
  "name": "Bogoyavleniye",
  "country": "RU",
  "coord": {
   "lon": 37.172779,
   "lat": 55.255001
  }
 },
 {
  "id": 818183,
  "name": "Semënkovo",
  "country": "RU",
  "coord": {
   "lon": 37.11972,
   "lat": 55.287224
  }
 },
 {
  "id": 534518,
  "name": "Loginovo",
  "country": "RU",
  "coord": {
   "lon": 37.049999,
   "lat": 55.299999
  }
 },
 {
  "id": 495187,
  "name": "Shchitovo",
  "country": "RU",
  "coord": {
   "lon": 37.016666,
   "lat": 55.316666
  }
 },
 {
  "id": 493634,
  "name": "Shubino",
  "country": "RU",
  "coord": {
   "lon": 37,
   "lat": 55.316666
  }
 },
 {
  "id": 818354,
  "name": "Kuvyakino",
  "country": "RU",
  "coord": {
   "lon": 36.957222,
   "lat": 55.355556
  }
 },
 {
  "id": 818392,
  "name": "Arkhangel’skoye",
  "country": "RU",
  "coord": {
   "lon": 36.91,
   "lat": 55.389999
  }
 },
 {
  "id": 494985,
  "name": "Shelomovo",
  "country": "RU",
  "coord": {
   "lon": 36.858334,
   "lat": 55.415558
  }
 },
 {
  "id": 824123,
  "name": "Shemolovo",
  "country": "RU",
  "coord": {
   "lon": 36.857498,
   "lat": 55.415279
  }
 },
 {
  "id": 578319,
  "name": "Bekasovo",
  "country": "RU",
  "coord": {
   "lon": 36.810001,
   "lat": 55.419998
  }
 },
 {
  "id": 530031,
  "name": "Malyye Semënychi",
  "country": "RU",
  "coord": {
   "lon": 36.69278,
   "lat": 55.47139
  }
 },
 {
  "id": 583523,
  "name": "Akulovo",
  "country": "RU",
  "coord": {
   "lon": 36.68,
   "lat": 55.509998
  }
 },
 {
  "id": 580691,
  "name": "Asakovo",
  "country": "RU",
  "coord": {
   "lon": 36.630001,
   "lat": 55.529999
  }
 },
 {
  "id": 502137,
  "name": "Repitsy",
  "country": "RU",
  "coord": {
   "lon": 36.65778,
   "lat": 55.573612
  }
 },
 {
  "id": 540030,
  "name": "Kubinka",
  "country": "RU",
  "coord": {
   "lon": 36.689999,
   "lat": 55.583889
  }
 },
 {
  "id": 819094,
  "name": "Ugryumovo",
  "country": "RU",
  "coord": {
   "lon": 36.745834,
   "lat": 55.613335
  }
 },
 {
  "id": 495742,
  "name": "Sharapovo",
  "country": "RU",
  "coord": {
   "lon": 36.746113,
   "lat": 55.656113
  }
 },
 {
  "id": 468632,
  "name": "Yastrebki",
  "country": "RU",
  "coord": {
   "lon": 36.764721,
   "lat": 55.671944
  }
 },
 {
  "id": 819292,
  "name": "Mart’yanovo",
  "country": "RU",
  "coord": {
   "lon": 36.78611,
   "lat": 55.679169
  }
 },
 {
  "id": 494505,
  "name": "Shikhovo",
  "country": "RU",
  "coord": {
   "lon": 36.793888,
   "lat": 55.708889
  }
 },
 {
  "id": 498114,
  "name": "Savvino",
  "country": "RU",
  "coord": {
   "lon": 36.806667,
   "lat": 55.727501
  }
 },
 {
  "id": 563714,
  "name": "Dyut’kovo",
  "country": "RU",
  "coord": {
   "lon": 36.806389,
   "lat": 55.754166
  }
 },
 {
  "id": 544994,
  "name": "Koralovo",
  "country": "RU",
  "coord": {
   "lon": 36.799999,
   "lat": 55.766666
  }
 },
 {
  "id": 820155,
  "name": "Nasonovo",
  "country": "RU",
  "coord": {
   "lon": 36.799168,
   "lat": 55.780556
  }
 },
 {
  "id": 486085,
  "name": "Surmino",
  "country": "RU",
  "coord": {
   "lon": 36.806946,
   "lat": 55.814445
  }
 },
 {
  "id": 533488,
  "name": "Lukino",
  "country": "RU",
  "coord": {
   "lon": 36.807777,
   "lat": 55.834167
  }
 },
 {
  "id": 820081,
  "name": "Petrovskoye",
  "country": "RU",
  "coord": {
   "lon": 36.883331,
   "lat": 55.833332
  }
 },
 {
  "id": 509859,
  "name": "Petrovskoye",
  "country": "RU",
  "coord": {
   "lon": 36.890278,
   "lat": 55.835835
  }
 },
 {
  "id": 555173,
  "name": "Ivanovskoye",
  "country": "RU",
  "coord": {
   "lon": 36.916668,
   "lat": 55.866669
  }
 },
 {
  "id": 475921,
  "name": "Vel’yaminovo",
  "country": "RU",
  "coord": {
   "lon": 36.920834,
   "lat": 55.876389
  }
 },
 {
  "id": 820142,
  "name": "Kachabroro",
  "country": "RU",
  "coord": {
   "lon": 36.935833,
   "lat": 55.891945
  }
 },
 {
  "id": 555171,
  "name": "Ivanovskoye",
  "country": "RU",
  "coord": {
   "lon": 36.959721,
   "lat": 55.926666
  }
 },
 {
  "id": 529577,
  "name": "Manikhino",
  "country": "RU",
  "coord": {
   "lon": 36.959442,
   "lat": 55.886944
  }
 },
 {
  "id": 508036,
  "name": "Podporino",
  "country": "RU",
  "coord": {
   "lon": 37.001667,
   "lat": 55.928612
  }
 },
 {
  "id": 467406,
  "name": "Yeremeyevo",
  "country": "RU",
  "coord": {
   "lon": 37.023888,
   "lat": 55.94278
  }
 },
 {
  "id": 534882,
  "name": "Lisavino",
  "country": "RU",
  "coord": {
   "lon": 37,
   "lat": 55.965
  }
 },
 {
  "id": 583735,
  "name": "Akishino",
  "country": "RU",
  "coord": {
   "lon": 37,
   "lat": 56
  }
 },
 {
  "id": 529274,
  "name": "Mar’ino",
  "country": "RU",
  "coord": {
   "lon": 37.016666,
   "lat": 56.016666
  }
 },
 {
  "id": 505824,
  "name": "Povarovo",
  "country": "RU",
  "coord": {
   "lon": 37.049999,
   "lat": 56.066666
  }
 },
 {
  "id": 467023,
  "name": "Yesipovo",
  "country": "RU",
  "coord": {
   "lon": 37.099998,
   "lat": 56.099998
  }
 },
 {
  "id": 528309,
  "name": "Maydarovo",
  "country": "RU",
  "coord": {
   "lon": 37.150002,
   "lat": 56.083332
  }
 },
 {
  "id": 463035,
  "name": "Zhilino",
  "country": "RU",
  "coord": {
   "lon": 37.25,
   "lat": 56.066666
  }
 },
 {
  "id": 507596,
  "name": "Pokrov",
  "country": "RU",
  "coord": {
   "lon": 37.266666,
   "lat": 56.083332
  }
 },
 {
  "id": 570924,
  "name": "Bunteikha",
  "country": "RU",
  "coord": {
   "lon": 37.283333,
   "lat": 56.099998
  }
 },
 {
  "id": 561331,
  "name": "Glazovo",
  "country": "RU",
  "coord": {
   "lon": 37.333332,
   "lat": 56.099998
  }
 },
 {
  "id": 580035,
  "name": "Babaikha",
  "country": "RU",
  "coord": {
   "lon": 37.349998,
   "lat": 56.099998
  }
 },
 {
  "id": 513676,
  "name": "Ovsyannikovo",
  "country": "RU",
  "coord": {
   "lon": 37.383331,
   "lat": 56.099998
  }
 },
 {
  "id": 577506,
  "name": "Belyy Rast",
  "country": "RU",
  "coord": {
   "lon": 37.400002,
   "lat": 56.130001
  }
 },
 {
  "id": 489863,
  "name": "Spas-Kamenka",
  "country": "RU",
  "coord": {
   "lon": 37.466667,
   "lat": 56.150002
  }
 },
 {
  "id": 467235,
  "name": "Yermolino",
  "country": "RU",
  "coord": {
   "lon": 37.5,
   "lat": 56.133331
  }
 },
 {
  "id": 557382,
  "name": "Iksha",
  "country": "RU",
  "coord": {
   "lon": 37.516666,
   "lat": 56.166668
  }
 },
 {
  "id": 578648,
  "name": "Batyushkovo",
  "country": "RU",
  "coord": {
   "lon": 37.549999,
   "lat": 56.23
  }
 },
 {
  "id": 527995,
  "name": "Medvedkovo",
  "country": "RU",
  "coord": {
   "lon": 37.516666,
   "lat": 56.25
  }
 },
 {
  "id": 481037,
  "name": "Tseleyevo",
  "country": "RU",
  "coord": {
   "lon": 37.5,
   "lat": 56.25
  }
 },
 {
  "id": 540783,
  "name": "Kromino",
  "country": "RU",
  "coord": {
   "lon": 37.516666,
   "lat": 56.266666
  }
 },
 {
  "id": 497255,
  "name": "Semeshki",
  "country": "RU",
  "coord": {
   "lon": 37.516666,
   "lat": 56.283333
  }
 },
 {
  "id": 511409,
  "name": "Peremilovo",
  "country": "RU",
  "coord": {
   "lon": 37.5,
   "lat": 56.299999
  }
 },
 {
  "id": 472794,
  "name": "Voldynskoye",
  "country": "RU",
  "coord": {
   "lon": 37.483334,
   "lat": 56.333332
  }
 },
 {
  "id": 565955,
  "name": "Dmitrov",
  "country": "RU",
  "coord": {
   "lon": 37.516666,
   "lat": 56.349998
  }
 },
 {
  "id": 555098,
  "name": "Ivantsëvo",
  "country": "RU",
  "coord": {
   "lon": 37.566666,
   "lat": 56.299999
  }
 },
 {
  "id": 557110,
  "name": "Il’inskoye",
  "country": "RU",
  "coord": {
   "lon": 37.599998,
   "lat": 56.283333
  }
 },
 {
  "id": 565068,
  "name": "Drachëvo",
  "country": "RU",
  "coord": {
   "lon": 37.633331,
   "lat": 56.299999
  }
 },
 {
  "id": 563074,
  "name": "Fëdorovskoye",
  "country": "RU",
  "coord": {
   "lon": 37.666668,
   "lat": 56.316666
  }
 },
 {
  "id": 579903,
  "name": "Babkino",
  "country": "RU",
  "coord": {
   "lon": 37.700001,
   "lat": 56.299999
  }
 },
 {
  "id": 543944,
  "name": "Kostino",
  "country": "RU",
  "coord": {
   "lon": 37.716667,
   "lat": 56.299999
  }
 },
 {
  "id": 503645,
  "name": "Puzino",
  "country": "RU",
  "coord": {
   "lon": 37.799999,
   "lat": 56.299999
  }
 },
 {
  "id": 535457,
  "name": "Levkovo",
  "country": "RU",
  "coord": {
   "lon": 37.866669,
   "lat": 56.283333
  }
 },
 {
  "id": 488207,
  "name": "Starozheltikovo",
  "country": "RU",
  "coord": {
   "lon": 37.916668,
   "lat": 56.316666
  }
 },
 {
  "id": 472061,
  "name": "Vorokhobino",
  "country": "RU",
  "coord": {
   "lon": 37.966667,
   "lat": 56.316666
  }
 },
 {
  "id": 495835,
  "name": "Shapilovo",
  "country": "RU",
  "coord": {
   "lon": 37.983334,
   "lat": 56.299999
  }
 },
 {
  "id": 462528,
  "name": "Zimogor’ye",
  "country": "RU",
  "coord": {
   "lon": 37.883331,
   "lat": 56.099998
  }
 },
 {
  "id": 529638,
  "name": "Mamontovka",
  "country": "RU",
  "coord": {
   "lon": 37.814167,
   "lat": 55.999443
  }
 },
 {
  "id": 6417946,
  "name": "Staryy Bol’shevik",
  "country": "RU",
  "coord": {
   "lon": 37.77639,
   "lat": 55.948055
  }
 },
 {
  "id": 6417170,
  "name": "Shestovo",
  "country": "RU",
  "coord": {
   "lon": 37.85611,
   "lat": 55.497501
  }
 },
 {
  "id": 573175,
  "name": "Bol’shoye Savrasovo",
  "country": "RU",
  "coord": {
   "lon": 37.912498,
   "lat": 55.496666
  }
 },
 {
  "id": 473142,
  "name": "Vladychino Novoye",
  "country": "RU",
  "coord": {
   "lon": 37.833332,
   "lat": 55.75
  }
 },
 {
  "id": 518879,
  "name": "Novogireyevo",
  "country": "RU",
  "coord": {
   "lon": 37.816666,
   "lat": 55.75
  }
 },
 {
  "id": 555129,
  "name": "Ivanovskoye",
  "country": "RU",
  "coord": {
   "lon": 37.833332,
   "lat": 55.766666
  }
 },
 {
  "id": 560465,
  "name": "Gol’yanovo",
  "country": "RU",
  "coord": {
   "lon": 37.816666,
   "lat": 55.816666
  }
 },
 {
  "id": 554787,
  "name": "Izmaylovo",
  "country": "RU",
  "coord": {
   "lon": 37.766666,
   "lat": 55.799999
  }
 },
 {
  "id": 6418787,
  "name": "Metrogorodok",
  "country": "RU",
  "coord": {
   "lon": 37.761944,
   "lat": 55.816944
  }
 },
 {
  "id": 525698,
  "name": "Mokrusha",
  "country": "RU",
  "coord": {
   "lon": 36.483334,
   "lat": 56.450001
  }
 },
 {
  "id": 545046,
  "name": "Kopylovo",
  "country": "RU",
  "coord": {
   "lon": 36.416668,
   "lat": 56.433334
  }
 },
 {
  "id": 472308,
  "name": "Volovnikovo",
  "country": "RU",
  "coord": {
   "lon": 36.366669,
   "lat": 56.433334
  }
 },
 {
  "id": 568579,
  "name": "Chernyatino",
  "country": "RU",
  "coord": {
   "lon": 36.333332,
   "lat": 56.416668
  }
 },
 {
  "id": 560726,
  "name": "Gologuzovo",
  "country": "RU",
  "coord": {
   "lon": 36.316666,
   "lat": 56.416668
  }
 },
 {
  "id": 471271,
  "name": "Vozdvizhenskoye",
  "country": "RU",
  "coord": {
   "lon": 36.283333,
   "lat": 56.383331
  }
 },
 {
  "id": 470135,
  "name": "Vysokovo",
  "country": "RU",
  "coord": {
   "lon": 36.200001,
   "lat": 56.383331
  }
 },
 {
  "id": 548053,
  "name": "Kitenëvo",
  "country": "RU",
  "coord": {
   "lon": 36.216667,
   "lat": 56.349998
  }
 },
 {
  "id": 484849,
  "name": "Taksino",
  "country": "RU",
  "coord": {
   "lon": 36.166668,
   "lat": 56.316666
  }
 },
 {
  "id": 537791,
  "name": "Kuz’minskoye",
  "country": "RU",
  "coord": {
   "lon": 36.116669,
   "lat": 56.233334
  }
 },
 {
  "id": 569876,
  "name": "Chashch’",
  "country": "RU",
  "coord": {
   "lon": 36.116669,
   "lat": 56.200001
  }
 },
 {
  "id": 483240,
  "name": "Teryayevo",
  "country": "RU",
  "coord": {
   "lon": 36.116669,
   "lat": 56.183334
  }
 },
 {
  "id": 537559,
  "name": "Kuzyayevo",
  "country": "RU",
  "coord": {
   "lon": 36.183334,
   "lat": 56.133331
  }
 },
 {
  "id": 557111,
  "name": "Il’inskoye",
  "country": "RU",
  "coord": {
   "lon": 36.200001,
   "lat": 56.116669
  }
 },
 {
  "id": 532471,
  "name": "Lyubyatino",
  "country": "RU",
  "coord": {
   "lon": 36.216667,
   "lat": 56.099998
  }
 },
 {
  "id": 468454,
  "name": "Yednevo",
  "country": "RU",
  "coord": {
   "lon": 36.233334,
   "lat": 56.099998
  }
 },
 {
  "id": 522212,
  "name": "Nikity",
  "country": "RU",
  "coord": {
   "lon": 36.200001,
   "lat": 56.066666
  }
 },
 {
  "id": 568007,
  "name": "Chismena",
  "country": "RU",
  "coord": {
   "lon": 36.216667,
   "lat": 56.033333
  }
 },
 {
  "id": 473157,
  "name": "Vladimirskiy Posëlok",
  "country": "RU",
  "coord": {
   "lon": 37.780834,
   "lat": 55.761944
  }
 },
 {
  "id": 538321,
  "name": "Kuskovo",
  "country": "RU",
  "coord": {
   "lon": 37.81028,
   "lat": 55.737221
  }
 },
 {
  "id": 495190,
  "name": "Shchitnikovo",
  "country": "RU",
  "coord": {
   "lon": 37.858891,
   "lat": 55.820557
  }
 },
 {
  "id": 471501,
  "name": "Vostochnyy",
  "country": "RU",
  "coord": {
   "lon": 37.866669,
   "lat": 55.816666
  }
 },
 {
  "id": 549863,
  "name": "Khokhlovka",
  "country": "RU",
  "coord": {
   "lon": 37.715,
   "lat": 55.727501
  }
 },
 {
  "id": 552932,
  "name": "Karacharovo",
  "country": "RU",
  "coord": {
   "lon": 37.736942,
   "lat": 55.730278
  }
 },
 {
  "id": 529237,
  "name": "Mar’ino",
  "country": "RU",
  "coord": {
   "lon": 37.716667,
   "lat": 55.650002
  }
 },
 {
  "id": 6417635,
  "name": "Zarech’ye",
  "country": "RU",
  "coord": {
   "lon": 37.391109,
   "lat": 55.686668
  }
 },
 {
  "id": 528454,
  "name": "Matveyevskoye",
  "country": "RU",
  "coord": {
   "lon": 37.473057,
   "lat": 55.706944
  }
 },
 {
  "id": 527057,
  "name": "Mikhalkovo",
  "country": "RU",
  "coord": {
   "lon": 37.433334,
   "lat": 55.683334
  }
 },
 {
  "id": 6417583,
  "name": "Gorodok Pisateley",
  "country": "RU",
  "coord": {
   "lon": 37.319168,
   "lat": 55.654446
  }
 },
 {
  "id": 533492,
  "name": "Lukino",
  "country": "RU",
  "coord": {
   "lon": 37.339722,
   "lat": 55.651669
  }
 },
 {
  "id": 473020,
  "name": "Vnukovo",
  "country": "RU",
  "coord": {
   "lon": 37.265835,
   "lat": 55.644722
  }
 },
 {
  "id": 819435,
  "name": "Postnikovo",
  "country": "RU",
  "coord": {
   "lon": 37.232498,
   "lat": 55.603058
  }
 },
 {
  "id": 819436,
  "name": "Sanino",
  "country": "RU",
  "coord": {
   "lon": 37.15139,
   "lat": 55.587776
  }
 },
 {
  "id": 473021,
  "name": "Vnukovo",
  "country": "RU",
  "coord": {
   "lon": 37.219166,
   "lat": 55.615002
  }
 },
 {
  "id": 529621,
  "name": "Mamyri",
  "country": "RU",
  "coord": {
   "lon": 37.060833,
   "lat": 55.554722
  }
 },
 {
  "id": 583119,
  "name": "Aleksandrovka",
  "country": "RU",
  "coord": {
   "lon": 36.799999,
   "lat": 55.400002
  }
 },
 {
  "id": 816435,
  "name": "Nikitinskaya",
  "country": "RU",
  "coord": {
   "lon": 36.68528,
   "lat": 55.191944
  }
 },
 {
  "id": 816451,
  "name": "Malan’ino",
  "country": "RU",
  "coord": {
   "lon": 36.655556,
   "lat": 55.150002
  }
 },
 {
  "id": 516436,
  "name": "Obninsk",
  "country": "RU",
  "coord": {
   "lon": 36.610279,
   "lat": 55.096943
  }
 },
 {
  "id": 816483,
  "name": "Ratmanovo",
  "country": "RU",
  "coord": {
   "lon": 36.555832,
   "lat": 55.062222
  }
 },
 {
  "id": 546208,
  "name": "Kolontay",
  "country": "RU",
  "coord": {
   "lon": 36.525002,
   "lat": 55.026669
  }
 },
 {
  "id": 532023,
  "name": "Maklino",
  "country": "RU",
  "coord": {
   "lon": 36.469143,
   "lat": 54.99263
  }
 },
 {
  "id": 584123,
  "name": "Afanasovo",
  "country": "RU",
  "coord": {
   "lon": 36.41814,
   "lat": 54.953205
  }
 },
 {
  "id": 6644145,
  "name": "Posëlok Yerdenevo",
  "country": "RU",
  "coord": {
   "lon": 36.386982,
   "lat": 54.924629
  }
 },
 {
  "id": 818708,
  "name": "Goncharovka",
  "country": "RU",
  "coord": {
   "lon": 36.360741,
   "lat": 54.862026
  }
 },
 {
  "id": 6645566,
  "name": "Taurovo",
  "country": "RU",
  "coord": {
   "lon": 36.299686,
   "lat": 54.799103
  }
 },
 {
  "id": 523774,
  "name": "Myzgi",
  "country": "RU",
  "coord": {
   "lon": 36.258057,
   "lat": 54.744373
  }
 },
 {
  "id": 6646415,
  "name": "Seleveretovo",
  "country": "RU",
  "coord": {
   "lon": 36.176403,
   "lat": 54.709843
  }
 },
 {
  "id": 474321,
  "name": "Verkhov’ye",
  "country": "RU",
  "coord": {
   "lon": 36.180363,
   "lat": 54.679375
  }
 },
 {
  "id": 6647953,
  "name": "Gorenskaya",
  "country": "RU",
  "coord": {
   "lon": 36.139603,
   "lat": 54.61047
  }
 },
 {
  "id": 524649,
  "name": "Mstikhino",
  "country": "RU",
  "coord": {
   "lon": 36.127769,
   "lat": 54.559471
  }
 },
 {
  "id": 479472,
  "name": "Ugra",
  "country": "RU",
  "coord": {
   "lon": 36.084274,
   "lat": 54.507133
  }
 },
 {
  "id": 818477,
  "name": "Malaya Slobodka",
  "country": "RU",
  "coord": {
   "lon": 36.024082,
   "lat": 54.442394
  }
 },
 {
  "id": 547380,
  "name": "Klyaz’ma",
  "country": "RU",
  "coord": {
   "lon": 37.446667,
   "lat": 55.963612
  }
 },
 {
  "id": 471667,
  "name": "Voskresenki",
  "country": "RU",
  "coord": {
   "lon": 37.433334,
   "lat": 55.966667
  }
 },
 {
  "id": 6418007,
  "name": "Yakovlevo",
  "country": "RU",
  "coord": {
   "lon": 37.455276,
   "lat": 55.963333
  }
 },
 {
  "id": 542762,
  "name": "Krasnaya Gorka",
  "country": "RU",
  "coord": {
   "lon": 37.526669,
   "lat": 55.991669
  }
 },
 {
  "id": 521374,
  "name": "Nikul’skoye",
  "country": "RU",
  "coord": {
   "lon": 37.683334,
   "lat": 56.016666
  }
 },
 {
  "id": 473325,
  "name": "Vitenëvo",
  "country": "RU",
  "coord": {
   "lon": 37.683334,
   "lat": 56.049999
  }
 },
 {
  "id": 510378,
  "name": "Pestovo",
  "country": "RU",
  "coord": {
   "lon": 37.700001,
   "lat": 56.066666
  }
 },
 {
  "id": 527127,
  "name": "Mikhalëvo",
  "country": "RU",
  "coord": {
   "lon": 37.700001,
   "lat": 56.083332
  }
 },
 {
  "id": 565670,
  "name": "Dolginikha",
  "country": "RU",
  "coord": {
   "lon": 37.650002,
   "lat": 56.099998
  }
 },
 {
  "id": 562910,
  "name": "Felisovo",
  "country": "RU",
  "coord": {
   "lon": 37.616669,
   "lat": 56.066666
  }
 },
 {
  "id": 563030,
  "name": "Fedoskino",
  "country": "RU",
  "coord": {
   "lon": 37.583332,
   "lat": 56.049999
  }
 },
 {
  "id": 467376,
  "name": "Yerëmino",
  "country": "RU",
  "coord": {
   "lon": 37.540279,
   "lat": 56.008888
  }
 },
 {
  "id": 550280,
  "name": "Khimki",
  "country": "RU",
  "coord": {
   "lon": 37.4375,
   "lat": 55.901669
  }
 },
 {
  "id": 542374,
  "name": "Krasnogorsk",
  "country": "RU",
  "coord": {
   "lon": 37.318054,
   "lat": 55.822498
  }
 },
 {
  "id": 511980,
  "name": "Pavshino",
  "country": "RU",
  "coord": {
   "lon": 37.350555,
   "lat": 55.812222
  }
 },
 {
  "id": 501361,
  "name": "Romashkovo",
  "country": "RU",
  "coord": {
   "lon": 37.337223,
   "lat": 55.731945
  }
 },
 {
  "id": 569224,
  "name": "Cherepkovo",
  "country": "RU",
  "coord": {
   "lon": 37.378056,
   "lat": 55.755833
  }
 },
 {
  "id": 522730,
  "name": "Nemchinovka",
  "country": "RU",
  "coord": {
   "lon": 37.36639,
   "lat": 55.722778
  }
 },
 {
  "id": 6417633,
  "name": "Nemchinovo",
  "country": "RU",
  "coord": {
   "lon": 37.362221,
   "lat": 55.678055
  }
 },
 {
  "id": 502792,
  "name": "Rasskazovka",
  "country": "RU",
  "coord": {
   "lon": 37.33139,
   "lat": 55.633057
  }
 },
 {
  "id": 511510,
  "name": "Novo-Peredelkino",
  "country": "RU",
  "coord": {
   "lon": 37.358612,
   "lat": 55.641109
  }
 },
 {
  "id": 475259,
  "name": "Verkhneye Valuyevo",
  "country": "RU",
  "coord": {
   "lon": 37.353058,
   "lat": 55.577221
  }
 },
 {
  "id": 6417277,
  "name": "Piskovo",
  "country": "RU",
  "coord": {
   "lon": 37.360279,
   "lat": 55.538612
  }
 },
 {
  "id": 476372,
  "name": "Vatutinki",
  "country": "RU",
  "coord": {
   "lon": 37.3325,
   "lat": 55.498333
  }
 },
 {
  "id": 473051,
  "name": "Vlas’yevo",
  "country": "RU",
  "coord": {
   "lon": 37.379444,
   "lat": 55.460278
  }
 },
 {
  "id": 510310,
  "name": "Pës’ye",
  "country": "RU",
  "coord": {
   "lon": 37.386391,
   "lat": 55.406387
  }
 },
 {
  "id": 513768,
  "name": "Ovechkino",
  "country": "RU",
  "coord": {
   "lon": 37.346111,
   "lat": 55.372223
  }
 },
 {
  "id": 817127,
  "name": "Slepushkino",
  "country": "RU",
  "coord": {
   "lon": 37.349445,
   "lat": 55.220001
  }
 },
 {
  "id": 508765,
  "name": "Pluzhkovo",
  "country": "RU",
  "coord": {
   "lon": 37.356388,
   "lat": 55.172222
  }
 },
 {
  "id": 6415826,
  "name": "Kargashinovo",
  "country": "RU",
  "coord": {
   "lon": 37.338055,
   "lat": 55.130833
  }
 },
 {
  "id": 526523,
  "name": "Milyagino",
  "country": "RU",
  "coord": {
   "lon": 37.34861,
   "lat": 55.088612
  }
 },
 {
  "id": 6415490,
  "name": "Nizhniye Velemi",
  "country": "RU",
  "coord": {
   "lon": 37.357498,
   "lat": 55.028057
  }
 },
 {
  "id": 816711,
  "name": "Ryblovo",
  "country": "RU",
  "coord": {
   "lon": 37.358784,
   "lat": 54.982193
  }
 },
 {
  "id": 504041,
  "name": "Pushchino",
  "country": "RU",
  "coord": {
   "lon": 37.348984,
   "lat": 54.94537
  }
 },
 {
  "id": 504872,
  "name": "Prokshino",
  "country": "RU",
  "coord": {
   "lon": 37.368984,
   "lat": 54.817745
  }
 },
 {
  "id": 817967,
  "name": "Pashkovo",
  "country": "RU",
  "coord": {
   "lon": 37.330364,
   "lat": 54.790771
  }
 },
 {
  "id": 818001,
  "name": "Povalyayevo",
  "country": "RU",
  "coord": {
   "lon": 37.33168,
   "lat": 54.6791
  }
 },
 {
  "id": 549206,
  "name": "Khrushchëvo",
  "country": "RU",
  "coord": {
   "lon": 37.36372,
   "lat": 54.622341
  }
 },
 {
  "id": 6708882,
  "name": "Pirogovo",
  "country": "RU",
  "coord": {
   "lon": 37.416676,
   "lat": 54.582775
  }
 },
 {
  "id": 465011,
  "name": "Zanino",
  "country": "RU",
  "coord": {
   "lon": 37.528786,
   "lat": 54.535709
  }
 },
 {
  "id": 483775,
  "name": "Telezhinka",
  "country": "RU",
  "coord": {
   "lon": 37.616669,
   "lat": 54.516666
  }
 },
 {
  "id": 468671,
  "name": "Yasnogorsk",
  "country": "RU",
  "coord": {
   "lon": 37.697498,
   "lat": 54.480278
  }
 },
 {
  "id": 817062,
  "name": "Ryazanovka",
  "country": "RU",
  "coord": {
   "lon": 37.814167,
   "lat": 54.467777
  }
 },
 {
  "id": 817059,
  "name": "Burdukovo",
  "country": "RU",
  "coord": {
   "lon": 37.880554,
   "lat": 54.436111
  }
 },
 {
  "id": 559392,
  "name": "Gorshkovo",
  "country": "RU",
  "coord": {
   "lon": 37.989445,
   "lat": 54.435555
  }
 },
 {
  "id": 496456,
  "name": "Setun’",
  "country": "RU",
  "coord": {
   "lon": 37.416668,
   "lat": 55.716667
  }
 },
 {
  "id": 539110,
  "name": "Kuntsevo",
  "country": "RU",
  "coord": {
   "lon": 37.411945,
   "lat": 55.738056
  }
 },
 {
  "id": 475508,
  "name": "Verkhne-Romashkovo",
  "country": "RU",
  "coord": {
   "lon": 37.349998,
   "lat": 55.733334
  }
 },
 {
  "id": 521054,
  "name": "Nizhne-Romashkovo",
  "country": "RU",
  "coord": {
   "lon": 37.333332,
   "lat": 55.733334
  }
 },
 {
  "id": 502445,
  "name": "Razdory",
  "country": "RU",
  "coord": {
   "lon": 37.303055,
   "lat": 55.746387
  }
 },
 {
  "id": 578953,
  "name": "Barvikha",
  "country": "RU",
  "coord": {
   "lon": 37.27,
   "lat": 55.740002
  }
 },
 {
  "id": 518630,
  "name": "Zhukovka",
  "country": "RU",
  "coord": {
   "lon": 37.248611,
   "lat": 55.736389
  }
 },
 {
  "id": 557115,
  "name": "Il’inskoye",
  "country": "RU",
  "coord": {
   "lon": 37.240833,
   "lat": 55.757778
  }
 },
 {
  "id": 583110,
  "name": "Aleksandrovka",
  "country": "RU",
  "coord": {
   "lon": 37.209999,
   "lat": 55.75
  }
 },
 {
  "id": 509998,
  "name": "Petrovo-Dalneye",
  "country": "RU",
  "coord": {
   "lon": 37.18111,
   "lat": 55.746113
  }
 },
 {
  "id": 6417691,
  "name": "Mechnikovo",
  "country": "RU",
  "coord": {
   "lon": 37.167778,
   "lat": 55.752777
  }
 },
 {
  "id": 565906,
  "name": "Dmitrovskoye",
  "country": "RU",
  "coord": {
   "lon": 37.122223,
   "lat": 55.754444
  }
 },
 {
  "id": 558807,
  "name": "Gribanovo",
  "country": "RU",
  "coord": {
   "lon": 37.122501,
   "lat": 55.74361
  }
 },
 {
  "id": 564327,
  "name": "Dubtsy",
  "country": "RU",
  "coord": {
   "lon": 37.112499,
   "lat": 55.73
  }
 },
 {
  "id": 479716,
  "name": "Ubory",
  "country": "RU",
  "coord": {
   "lon": 37.101112,
   "lat": 55.728333
  }
 },
 {
  "id": 819411,
  "name": "Аксиньино",
  "country": "RU",
  "coord": {
   "lon": 37.049999,
   "lat": 55.73
  }
 },
 {
  "id": 521821,
  "name": "Nikolina Gora",
  "country": "RU",
  "coord": {
   "lon": 37.041389,
   "lat": 55.734444
  }
 },
 {
  "id": 555832,
  "name": "Islavskoye",
  "country": "RU",
  "coord": {
   "lon": 37.003056,
   "lat": 55.72028
  }
 },
 {
  "id": 583591,
  "name": "Aksin’ino",
  "country": "RU",
  "coord": {
   "lon": 36.98,
   "lat": 55.73
  }
 },
 {
  "id": 564152,
  "name": "Dunino",
  "country": "RU",
  "coord": {
   "lon": 36.942223,
   "lat": 55.724445
  }
 },
 {
  "id": 543219,
  "name": "Kozino",
  "country": "RU",
  "coord": {
   "lon": 36.929722,
   "lat": 55.733891
  }
 },
 {
  "id": 524696,
  "name": "Mozhinka",
  "country": "RU",
  "coord": {
   "lon": 36.900002,
   "lat": 55.733334
  }
 },
 {
  "id": 461920,
  "name": "Zvenigorod",
  "country": "RU",
  "coord": {
   "lon": 36.8475,
   "lat": 55.733334
  }
 },
 {
  "id": 499950,
  "name": "Rybushkino",
  "country": "RU",
  "coord": {
   "lon": 36.767502,
   "lat": 55.711666
  }
 },
 {
  "id": 477874,
  "name": "Ust’ye",
  "country": "RU",
  "coord": {
   "lon": 36.710835,
   "lat": 55.704723
  }
 },
 {
  "id": 561491,
  "name": "Gigerevo",
  "country": "RU",
  "coord": {
   "lon": 36.68861,
   "lat": 55.695557
  }
 },
 {
  "id": 552433,
  "name": "Karinskoye",
  "country": "RU",
  "coord": {
   "lon": 36.685001,
   "lat": 55.709442
  }
 },
 {
  "id": 819036,
  "name": "D’yakonovo",
  "country": "RU",
  "coord": {
   "lon": 36.655834,
   "lat": 55.698612
  }
 },
 {
  "id": 479258,
  "name": "Ulitino",
  "country": "RU",
  "coord": {
   "lon": 36.666668,
   "lat": 55.683334
  }
 },
 {
  "id": 819038,
  "name": "Gribtsovo",
  "country": "RU",
  "coord": {
   "lon": 36.664165,
   "lat": 55.683334
  }
 },
 {
  "id": 500095,
  "name": "Ryazan’",
  "country": "RU",
  "coord": {
   "lon": 36.669724,
   "lat": 55.674442
  }
 },
 {
  "id": 526810,
  "name": "Mikhaylovskaya",
  "country": "RU",
  "coord": {
   "lon": 36.625,
   "lat": 55.654446
  }
 },
 {
  "id": 549343,
  "name": "Khotyazhi",
  "country": "RU",
  "coord": {
   "lon": 36.570557,
   "lat": 55.644722
  }
 },
 {
  "id": 577359,
  "name": "Berezhki",
  "country": "RU",
  "coord": {
   "lon": 36.549999,
   "lat": 55.630001
  }
 },
 {
  "id": 584069,
  "name": "Agafonovo",
  "country": "RU",
  "coord": {
   "lon": 36.57,
   "lat": 55.619999
  }
 },
 {
  "id": 819092,
  "name": "Oktyabr’",
  "country": "RU",
  "coord": {
   "lon": 36.585278,
   "lat": 55.608891
  }
 },
 {
  "id": 558696,
  "name": "Grigorovo",
  "country": "RU",
  "coord": {
   "lon": 36.535831,
   "lat": 55.602501
  }
 },
 {
  "id": 541552,
  "name": "Krasnyy Oktyabr’",
  "country": "RU",
  "coord": {
   "lon": 36.511112,
   "lat": 55.619446
  }
 },
 {
  "id": 537208,
  "name": "Ladygino",
  "country": "RU",
  "coord": {
   "lon": 36.5,
   "lat": 55.616669
  }
 },
 {
  "id": 480685,
  "name": "Tuchkovo",
  "country": "RU",
  "coord": {
   "lon": 36.468056,
   "lat": 55.601112
  }
 },
 {
  "id": 560113,
  "name": "Gorenki",
  "country": "RU",
  "coord": {
   "lon": 37.900002,
   "lat": 55.799999
  }
 },
 {
  "id": 521901,
  "name": "Nikolayevka",
  "country": "RU",
  "coord": {
   "lon": 37.933334,
   "lat": 55.799999
  }
 },
 {
  "id": 535974,
  "name": "Leonovo",
  "country": "RU",
  "coord": {
   "lon": 37.950001,
   "lat": 55.799999
  }
 },
 {
  "id": 521569,
  "name": "Nikol’sko-Trubetskoye",
  "country": "RU",
  "coord": {
   "lon": 37.965,
   "lat": 55.835556
  }
 },
 {
  "id": 528917,
  "name": "Marusino",
  "country": "RU",
  "coord": {
   "lon": 37.979721,
   "lat": 55.695278
  }
 },
 {
  "id": 6417688,
  "name": "Pavlino",
  "country": "RU",
  "coord": {
   "lon": 37.953609,
   "lat": 55.723331
  }
 },
 {
  "id": 562897,
  "name": "Fenino",
  "country": "RU",
  "coord": {
   "lon": 37.948612,
   "lat": 55.726665
  }
 },
 {
  "id": 500701,
  "name": "Rudnëvo",
  "country": "RU",
  "coord": {
   "lon": 37.928612,
   "lat": 55.723331
  }
 },
 {
  "id": 526701,
  "name": "Mikhel’sonovskiy",
  "country": "RU",
  "coord": {
   "lon": 37.900002,
   "lat": 55.700001
  }
 },
 {
  "id": 543264,
  "name": "Kozhukhovo",
  "country": "RU",
  "coord": {
   "lon": 37.90361,
   "lat": 55.715279
  }
 },
 {
  "id": 565236,
  "name": "Dorino",
  "country": "RU",
  "coord": {
   "lon": 36.150002,
   "lat": 56.466667
  }
 },
 {
  "id": 538476,
  "name": "Kur’yanovo",
  "country": "RU",
  "coord": {
   "lon": 36.083332,
   "lat": 56.450001
  }
 },
 {
  "id": 551408,
  "name": "Kazarets",
  "country": "RU",
  "coord": {
   "lon": 36.033333,
   "lat": 56.349998
  }
 },
 {
  "id": 463782,
  "name": "Zelentsino",
  "country": "RU",
  "coord": {
   "lon": 36.083332,
   "lat": 56.383331
  }
 },
 {
  "id": 487628,
  "name": "Stepantsevo",
  "country": "RU",
  "coord": {
   "lon": 36.166668,
   "lat": 56.366669
  }
 },
 {
  "id": 468401,
  "name": "Yefim’yevo",
  "country": "RU",
  "coord": {
   "lon": 36.099998,
   "lat": 56.150002
  }
 },
 {
  "id": 515186,
  "name": "Opalikha",
  "country": "RU",
  "coord": {
   "lon": 37.255001,
   "lat": 55.827499
  }
 },
 {
  "id": 518444,
  "name": "Novonikol’skoye",
  "country": "RU",
  "coord": {
   "lon": 37.253887,
   "lat": 55.841389
  }
 },
 {
  "id": 499626,
  "name": "Saburovo",
  "country": "RU",
  "coord": {
   "lon": 37.266388,
   "lat": 55.878334
  }
 },
 {
  "id": 820073,
  "name": "Федоровка",
  "country": "RU",
  "coord": {
   "lon": 37.236111,
   "lat": 55.900276
  }
 },
 {
  "id": 543218,
  "name": "Kozino",
  "country": "RU",
  "coord": {
   "lon": 37.18,
   "lat": 55.891945
  }
 },
 {
  "id": 820072,
  "name": "Nefed’yevo",
  "country": "RU",
  "coord": {
   "lon": 37.150276,
   "lat": 55.894722
  }
 },
 {
  "id": 820071,
  "name": "Turovo",
  "country": "RU",
  "coord": {
   "lon": 37.113609,
   "lat": 55.904167
  }
 },
 {
  "id": 6417886,
  "name": "Nadovrazhino",
  "country": "RU",
  "coord": {
   "lon": 37.116669,
   "lat": 55.914722
  }
 },
 {
  "id": 820069,
  "name": "Dedovo-Talyzino",
  "country": "RU",
  "coord": {
   "lon": 37.093613,
   "lat": 55.91861
  }
 },
 {
  "id": 549327,
  "name": "Khovanskoye",
  "country": "RU",
  "coord": {
   "lon": 37.061668,
   "lat": 55.927776
  }
 },
 {
  "id": 549729,
  "name": "Kholmy",
  "country": "RU",
  "coord": {
   "lon": 36.976665,
   "lat": 55.979168
  }
 },
 {
  "id": 584226,
  "name": "Aduyevo",
  "country": "RU",
  "coord": {
   "lon": 36.970001,
   "lat": 55.959999
  }
 },
 {
  "id": 564247,
  "name": "Dukhanino",
  "country": "RU",
  "coord": {
   "lon": 36.947777,
   "lat": 55.975834
  }
 },
 {
  "id": 523053,
  "name": "Nebogatkovo",
  "country": "RU",
  "coord": {
   "lon": 36.933334,
   "lat": 55.966667
  }
 },
 {
  "id": 820139,
  "name": "Sokol’niki",
  "country": "RU",
  "coord": {
   "lon": 36.903057,
   "lat": 55.955276
  }
 },
 {
  "id": 581925,
  "name": "Andreyevskoye",
  "country": "RU",
  "coord": {
   "lon": 36.860001,
   "lat": 55.950001
  }
 },
 {
  "id": 820133,
  "name": "Nikulina",
  "country": "RU",
  "coord": {
   "lon": 36.842777,
   "lat": 55.935001
  }
 },
 {
  "id": 579904,
  "name": "Babkino",
  "country": "RU",
  "coord": {
   "lon": 36.830002,
   "lat": 55.950001
  }
 },
 {
  "id": 531919,
  "name": "Maksimovka",
  "country": "RU",
  "coord": {
   "lon": 36.846943,
   "lat": 55.963333
  }
 },
 {
  "id": 820137,
  "name": "Mikhaylovka",
  "country": "RU",
  "coord": {
   "lon": 36.815834,
   "lat": 55.96722
  }
 },
 {
  "id": 570449,
  "name": "Buzharovo",
  "country": "RU",
  "coord": {
   "lon": 36.798889,
   "lat": 55.983055
  }
 },
 {
  "id": 820135,
  "name": "Ananovo",
  "country": "RU",
  "coord": {
   "lon": 36.740002,
   "lat": 55.990002
  }
 },
 {
  "id": 492828,
  "name": "Sinëvo",
  "country": "RU",
  "coord": {
   "lon": 36.733334,
   "lat": 56.016666
  }
 },
 {
  "id": 552080,
  "name": "Kartsevo",
  "country": "RU",
  "coord": {
   "lon": 36.716667,
   "lat": 56.049999
  }
 },
 {
  "id": 475455,
  "name": "Verkhne-Vasil’yevskoye",
  "country": "RU",
  "coord": {
   "lon": 36.566666,
   "lat": 56.033333
  }
 },
 {
  "id": 478096,
  "name": "Ustinovo",
  "country": "RU",
  "coord": {
   "lon": 36.483334,
   "lat": 56.016666
  }
 },
 {
  "id": 518346,
  "name": "Novopetrovskoye",
  "country": "RU",
  "coord": {
   "lon": 36.471943,
   "lat": 55.992779
  }
 },
 {
  "id": 487740,
  "name": "Stepan’kovo",
  "country": "RU",
  "coord": {
   "lon": 37.816666,
   "lat": 56.066666
  }
 },
 {
  "id": 482714,
  "name": "Tishkovo",
  "country": "RU",
  "coord": {
   "lon": 37.733334,
   "lat": 56.083332
  }
 },
 {
  "id": 543972,
  "name": "Kostinino",
  "country": "RU",
  "coord": {
   "lon": 37.75,
   "lat": 56.116669
  }
 },
 {
  "id": 582672,
  "name": "Alëshino",
  "country": "RU",
  "coord": {
   "lon": 37.75,
   "lat": 56.150002
  }
 },
 {
  "id": 579528,
  "name": "Balabanovo",
  "country": "RU",
  "coord": {
   "lon": 37.73,
   "lat": 56.18
  }
 },
 {
  "id": 576160,
  "name": "Blagodat’",
  "country": "RU",
  "coord": {
   "lon": 37.733334,
   "lat": 56.200001
  }
 },
 {
  "id": 548865,
  "name": "Khylby",
  "country": "RU",
  "coord": {
   "lon": 37.75,
   "lat": 56.233334
  }
 },
 {
  "id": 477109,
  "name": "Van’kovo",
  "country": "RU",
  "coord": {
   "lon": 37.700001,
   "lat": 56.266666
  }
 },
 {
  "id": 471938,
  "name": "Voronovo",
  "country": "RU",
  "coord": {
   "lon": 37.700001,
   "lat": 56.366669
  }
 },
 {
  "id": 463134,
  "name": "Zhestylëvo",
  "country": "RU",
  "coord": {
   "lon": 37.650002,
   "lat": 56.400002
  }
 },
 {
  "id": 537688,
  "name": "Kuznetsovo",
  "country": "RU",
  "coord": {
   "lon": 37.700001,
   "lat": 56.433334
  }
 },
 {
  "id": 519941,
  "name": "Noskovo",
  "country": "RU",
  "coord": {
   "lon": 37.700001,
   "lat": 56.450001
  }
 },
 {
  "id": 475845,
  "name": "Verbilki",
  "country": "RU",
  "coord": {
   "lon": 37.599998,
   "lat": 56.533333
  }
 },
 {
  "id": 518440,
  "name": "Novo-Nikol’skoye",
  "country": "RU",
  "coord": {
   "lon": 37.533333,
   "lat": 56.566666
  }
 },
 {
  "id": 484285,
  "name": "Tarusovo",
  "country": "RU",
  "coord": {
   "lon": 37.516666,
   "lat": 56.599998
  }
 },
 {
  "id": 510242,
  "name": "Petrino",
  "country": "RU",
  "coord": {
   "lon": 37.583332,
   "lat": 56.616669
  }
 },
 {
  "id": 573922,
  "name": "Bolshiye Vyazemy",
  "country": "RU",
  "coord": {
   "lon": 36.983334,
   "lat": 55.633331
  }
 },
 {
  "id": 465437,
  "name": "Zakharovo",
  "country": "RU",
  "coord": {
   "lon": 36.962502,
   "lat": 55.649445
  }
 },
 {
  "id": 550058,
  "name": "Khlyupino",
  "country": "RU",
  "coord": {
   "lon": 36.961109,
   "lat": 55.673611
  }
 },
 {
  "id": 492330,
  "name": "Skorotovo",
  "country": "RU",
  "coord": {
   "lon": 36.908611,
   "lat": 55.683056
  }
 },
 {
  "id": 546991,
  "name": "Kobyakovo",
  "country": "RU",
  "coord": {
   "lon": 36.88028,
   "lat": 55.678055
  }
 },
 {
  "id": 557498,
  "name": "Ignat’yevo",
  "country": "RU",
  "coord": {
   "lon": 36.866669,
   "lat": 55.716667
  }
 },
 {
  "id": 492404,
  "name": "Skokovo",
  "country": "RU",
  "coord": {
   "lon": 36.871387,
   "lat": 55.752777
  }
 },
 {
  "id": 555028,
  "name": "Ivashkovo",
  "country": "RU",
  "coord": {
   "lon": 36.782501,
   "lat": 55.783611
  }
 },
 {
  "id": 566920,
  "name": "Davydovskoye",
  "country": "RU",
  "coord": {
   "lon": 36.796944,
   "lat": 55.859165
  }
 },
 {
  "id": 820143,
  "name": "Kryuchkov",
  "country": "RU",
  "coord": {
   "lon": 36.797779,
   "lat": 55.880001
  }
 },
 {
  "id": 481162,
  "name": "Trusovo",
  "country": "RU",
  "coord": {
   "lon": 36.825832,
   "lat": 55.882778
  }
 },
 {
  "id": 820145,
  "name": "Koterevo",
  "country": "RU",
  "coord": {
   "lon": 36.844723,
   "lat": 55.875832
  }
 },
 {
  "id": 533759,
  "name": "Luchinskoye",
  "country": "RU",
  "coord": {
   "lon": 36.841946,
   "lat": 55.891666
  }
 },
 {
  "id": 820138,
  "name": "Nikol’skoye",
  "country": "RU",
  "coord": {
   "lon": 36.899166,
   "lat": 55.965557
  }
 },
 {
  "id": 538537,
  "name": "Kurtasovo",
  "country": "RU",
  "coord": {
   "lon": 36.900002,
   "lat": 55.983334
  }
 },
 {
  "id": 487743,
  "name": "Stepan’kovo",
  "country": "RU",
  "coord": {
   "lon": 36.899445,
   "lat": 55.984444
  }
 },
 {
  "id": 516128,
  "name": "Ognikovo",
  "country": "RU",
  "coord": {
   "lon": 36.916668,
   "lat": 56
  }
 },
 {
  "id": 491196,
  "name": "Sokolovo",
  "country": "RU",
  "coord": {
   "lon": 36.916668,
   "lat": 56.033333
  }
 },
 {
  "id": 482577,
  "name": "Tobenki",
  "country": "RU",
  "coord": {
   "lon": 36.966667,
   "lat": 56.049999
  }
 },
 {
  "id": 465720,
  "name": "Zadorino",
  "country": "RU",
  "coord": {
   "lon": 36.983334,
   "lat": 56.066666
  }
 },
 {
  "id": 564273,
  "name": "Dudkino",
  "country": "RU",
  "coord": {
   "lon": 37.016666,
   "lat": 56.083332
  }
 },
 {
  "id": 495030,
  "name": "Shelepikha",
  "country": "RU",
  "coord": {
   "lon": 37.516666,
   "lat": 55.75
  }
 },
 {
  "id": 562820,
  "name": "Fili",
  "country": "RU",
  "coord": {
   "lon": 37.485558,
   "lat": 55.7425
  }
 },
 {
  "id": 528176,
  "name": "Mazilovo",
  "country": "RU",
  "coord": {
   "lon": 37.463055,
   "lat": 55.731388
  }
 },
 {
  "id": 518805,
  "name": "Novoivanovskoye",
  "country": "RU",
  "coord": {
   "lon": 37.369999,
   "lat": 55.711666
  }
 },
 {
  "id": 531377,
  "name": "Malaya Setun’",
  "country": "RU",
  "coord": {
   "lon": 37.383331,
   "lat": 55.716667
  }
 },
 {
  "id": 481818,
  "name": "Trëkhgorka",
  "country": "RU",
  "coord": {
   "lon": 37.331112,
   "lat": 55.698055
  }
 },
 {
  "id": 6417680,
  "name": "Vyrubovo",
  "country": "RU",
  "coord": {
   "lon": 37.304443,
   "lat": 55.675835
  }
 },
 {
  "id": 6417681,
  "name": "Yaskino",
  "country": "RU",
  "coord": {
   "lon": 37.271942,
   "lat": 55.665001
  }
 },
 {
  "id": 564754,
  "name": "Dubki",
  "country": "RU",
  "coord": {
   "lon": 37.209167,
   "lat": 55.669724
  }
 },
 {
  "id": 466748,
  "name": "Yudino",
  "country": "RU",
  "coord": {
   "lon": 37.188889,
   "lat": 55.659721
  }
 },
 {
  "id": 511211,
  "name": "Perkhushkovo",
  "country": "RU",
  "coord": {
   "lon": 37.140556,
   "lat": 55.654999
  }
 },
 {
  "id": 463465,
  "name": "Zhavoronki",
  "country": "RU",
  "coord": {
   "lon": 37.104168,
   "lat": 55.649723
  }
 },
 {
  "id": 529981,
  "name": "Malyye Vyazëmy",
  "country": "RU",
  "coord": {
   "lon": 37.013889,
   "lat": 55.636112
  }
 },
 {
  "id": 482886,
  "name": "Timokhovo",
  "country": "RU",
  "coord": {
   "lon": 36.866669,
   "lat": 55.683334
  }
 },
 {
  "id": 492015,
  "name": "Sloboda",
  "country": "RU",
  "coord": {
   "lon": 37.821667,
   "lat": 55.603333
  }
 },
 {
  "id": 555765,
  "name": "Istomikha",
  "country": "RU",
  "coord": {
   "lon": 37.924999,
   "lat": 55.453609
  }
 },
 {
  "id": 6417168,
  "name": "Zherebyat’yevo",
  "country": "RU",
  "coord": {
   "lon": 37.840279,
   "lat": 55.466667
  }
 },
 {
  "id": 6417167,
  "name": "Kotlyakovo",
  "country": "RU",
  "coord": {
   "lon": 37.835556,
   "lat": 55.481388
  }
 },
 {
  "id": 496517,
  "name": "Sertyakino",
  "country": "RU",
  "coord": {
   "lon": 37.479443,
   "lat": 55.361389
  }
 },
 {
  "id": 818036,
  "name": "Luchinskoye",
  "country": "RU",
  "coord": {
   "lon": 37.452221,
   "lat": 55.343334
  }
 },
 {
  "id": 521420,
  "name": "Nikulino",
  "country": "RU",
  "coord": {
   "lon": 37.435001,
   "lat": 55.343613
  }
 },
 {
  "id": 499254,
  "name": "Sal’kovo",
  "country": "RU",
  "coord": {
   "lon": 37.392776,
   "lat": 55.321945
  }
 },
 {
  "id": 6416252,
  "name": "Zybino",
  "country": "RU",
  "coord": {
   "lon": 37.373611,
   "lat": 55.29361
  }
 },
 {
  "id": 468424,
  "name": "Yefimovka",
  "country": "RU",
  "coord": {
   "lon": 37.228889,
   "lat": 55.231945
  }
 },
 {
  "id": 6415981,
  "name": "Bogdanovka",
  "country": "RU",
  "coord": {
   "lon": 37.236389,
   "lat": 55.221111
  }
 },
 {
  "id": 817124,
  "name": "Tyufanka",
  "country": "RU",
  "coord": {
   "lon": 37.24778,
   "lat": 55.21389
  }
 },
 {
  "id": 817120,
  "name": "Masnovo-Zhukovo",
  "country": "RU",
  "coord": {
   "lon": 37.255833,
   "lat": 55.204445
  }
 },
 {
  "id": 582597,
  "name": "Alfërovo",
  "country": "RU",
  "coord": {
   "lon": 37.23,
   "lat": 55.200001
  }
 },
 {
  "id": 816839,
  "name": "Ishino",
  "country": "RU",
  "coord": {
   "lon": 37.200558,
   "lat": 55.197498
  }
 },
 {
  "id": 816837,
  "name": "Grishenki",
  "country": "RU",
  "coord": {
   "lon": 37.182499,
   "lat": 55.184723
  }
 },
 {
  "id": 487198,
  "name": "Stremilovo",
  "country": "RU",
  "coord": {
   "lon": 37.155277,
   "lat": 55.142502
  }
 },
 {
  "id": 6415800,
  "name": "Rastovka",
  "country": "RU",
  "coord": {
   "lon": 37.153057,
   "lat": 55.113609
  }
 },
 {
  "id": 470042,
  "name": "Vysokovo",
  "country": "RU",
  "coord": {
   "lon": 37.180557,
   "lat": 55.103611
  }
 },
 {
  "id": 570952,
  "name": "Bulychëvo",
  "country": "RU",
  "coord": {
   "lon": 37.245556,
   "lat": 55.101391
  }
 },
 {
  "id": 527468,
  "name": "Merleyevo",
  "country": "RU",
  "coord": {
   "lon": 37.214722,
   "lat": 55.078056
  }
 },
 {
  "id": 816758,
  "name": "Березенки",
  "country": "RU",
  "coord": {
   "lon": 37.220001,
   "lat": 55.07
  }
 },
 {
  "id": 816751,
  "name": "Spas-Temnya",
  "country": "RU",
  "coord": {
   "lon": 37.203335,
   "lat": 55.055
  }
 },
 {
  "id": 570526,
  "name": "Butyrki",
  "country": "RU",
  "coord": {
   "lon": 37.218887,
   "lat": 55.048889
  }
 },
 {
  "id": 816750,
  "name": "Vikhrovo",
  "country": "RU",
  "coord": {
   "lon": 37.244446,
   "lat": 55.046112
  }
 },
 {
  "id": 817080,
  "name": "S”yanovo Vtoroye",
  "country": "RU",
  "coord": {
   "lon": 37.248611,
   "lat": 55.03278
  }
 },
 {
  "id": 475281,
  "name": "Verkhneye Shakhlovo",
  "country": "RU",
  "coord": {
   "lon": 37.258331,
   "lat": 55.027222
  }
 },